[{"DISTRIBUTOR_CODE":160896,"DISTRIBUTOR_NAME":"B.D. GAS AGENCY","SALES_AREA_NAME":"IMPHAL III LPG SA","STATE_NAME":"Manipur","DISTRICT_NAME":"CHANDEL","BACKLOG":9.16,"Previous Day Delivery":97,"STOCK":735.0,"Pending Deliveries":679,">10Days":39,">20days":69,"Lat":24.326175,"Long":94.000482},{"DISTRIBUTOR_CODE":276253,"DISTRIBUTOR_NAME":"BABA LOKNATH INDANE GRAMIN VIT","SALES_AREA_NAME":"Agartala LPG SA-II","STATE_NAME":"Tripura","DISTRICT_NAME":"TRIPURA WEST","BACKLOG":1.77,"Previous Day Delivery":274,"STOCK":98.0,"Pending Deliveries":256,">10Days":0,">20days":0,"Lat":23.736781,"Long":91.267981},{"DISTRIBUTOR_CODE":293348,"DISTRIBUTOR_NAME":"BADARPUR INDANE SERVICE","SALES_AREA_NAME":"Silchar LPG SA","STATE_NAME":"Assam","DISTRICT_NAME":"KARIMGANJ","BACKLOG":2.94,"Previous Day Delivery":307,"STOCK":275.0,"Pending Deliveries":794,">10Days":0,">20days":0,"Lat":24.871168,"Long":92.5581},{"DISTRIBUTOR_CODE":314331,"DISTRIBUTOR_NAME":"BAGABASA INDANE GRAMIN VITRAK","SALES_AREA_NAME":"Agartala LPG SA","STATE_NAME":"Tripura","DISTRICT_NAME":"SEPAHIJALA","BACKLOG":1.79,"Previous Day Delivery":133,"STOCK":295.0,"Pending Deliveries":168,">10Days":2,">20days":0,"Lat":23.540478,"Long":91.379485},{"DISTRIBUTOR_CODE":281700,"DISTRIBUTOR_NAME":"BAIKHORA BAZAR INDANE GRAMIN V","SALES_AREA_NAME":"Agartala LPG SA-II","STATE_NAME":"Tripura","DISTRICT_NAME":"TRIPURA SOUTH","BACKLOG":1.22,"Previous Day Delivery":222,"STOCK":62.0,"Pending Deliveries":285,">10Days":1,">20days":0,"Lat":23.268936,"Long":91.576037},{"DISTRIBUTOR_CODE":310890,"DISTRIBUTOR_NAME":"BAIRABI INDANE GRAMIN VITRAK","SALES_AREA_NAME":"Silchar II LSA","STATE_NAME":"Mizoram","DISTRICT_NAME":"KOLASIB","BACKLOG":0.49,"Previous Day Delivery":0,"STOCK":106.0,"Pending Deliveries":21,">10Days":4,">20days":0,"Lat":null,"Long":null},{"DISTRIBUTOR_CODE":160805,"DISTRIBUTOR_NAME":"BALAJI GAS AGENCY","SALES_AREA_NAME":"Silchar II LSA","STATE_NAME":"Assam","DISTRICT_NAME":"CACHAR","BACKLOG":4.3,"Previous Day Delivery":120,"STOCK":402.0,"Pending Deliveries":788,">10Days":2,">20days":0,"Lat":24.7360576,"Long":92.8757286},{"DISTRIBUTOR_CODE":290983,"DISTRIBUTOR_NAME":"BANIKYA CHOWMUHANI INDANE GRAMIN VI","SALES_AREA_NAME":"Agartala LPG SA-II","STATE_NAME":"Tripura","DISTRICT_NAME":"TRIPURA WEST","BACKLOG":0.68,"Previous Day Delivery":342,"STOCK":56.0,"Pending Deliveries":155,">10Days":0,">20days":0,"Lat":23.858248,"Long":91.327403},{"DISTRIBUTOR_CODE":314393,"DISTRIBUTOR_NAME":"BARABIL INDANE GRAMIN VITRAK","SALES_AREA_NAME":"Agartala LPG SA-II","STATE_NAME":"Tripura","DISTRICT_NAME":"GOMATI","BACKLOG":2.22,"Previous Day Delivery":11,"STOCK":320.0,"Pending Deliveries":58,">10Days":0,">20days":0,"Lat":23.230834,"Long":91.771922},{"DISTRIBUTOR_CODE":283900,"DISTRIBUTOR_NAME":"BARAIGRAM INDANE GRAMIN VITRAK","SALES_AREA_NAME":"Dharmanagar LSA","STATE_NAME":"Assam","DISTRICT_NAME":"KARIMGANJ","BACKLOG":0.71,"Previous Day Delivery":71,"STOCK":36.0,"Pending Deliveries":203,">10Days":0,">20days":0,"Lat":24.6594983,"Long":92.3297882},{"DISTRIBUTOR_CODE":287179,"DISTRIBUTOR_NAME":"BASHIKHONG INDANE GRAMIN VITRAK","SALES_AREA_NAME":"Imphal II LPG SA","STATE_NAME":"Manipur","DISTRICT_NAME":"IMPHAL EAST","BACKLOG":0.44,"Previous Day Delivery":72,"STOCK":42.0,"Pending Deliveries":42,">10Days":15,">20days":4,"Lat":24.762037,"Long":93.950373},{"DISTRIBUTOR_CODE":315333,"DISTRIBUTOR_NAME":"BHANGA INDANE GRAMIN VITRAK","SALES_AREA_NAME":"Silchar LPG SA","STATE_NAME":"Assam","DISTRICT_NAME":"KARIMGANJ","BACKLOG":2.49,"Previous Day Delivery":213,"STOCK":341.0,"Pending Deliveries":368,">10Days":3,">20days":0,"Lat":24.857791,"Long":92.486752},{"DISTRIBUTOR_CODE":313533,"DISTRIBUTOR_NAME":"BHUTANGKHAL INDANE GRAMIN VITRAK","SALES_AREA_NAME":"Silchar LPG SA","STATE_NAME":"Manipur","DISTRICT_NAME":"JIRIBAM","BACKLOG":0.0,"Previous Day Delivery":30,"STOCK":327.0,"Pending Deliveries":0,">10Days":0,">20days":0,"Lat":null,"Long":null},{"DISTRIBUTOR_CODE":160814,"DISTRIBUTOR_NAME":"BIAKKUNGI GAS SERVICE","SALES_AREA_NAME":"LPG - AIZAWL II","STATE_NAME":"Mizoram","DISTRICT_NAME":"AIZAWL","BACKLOG":2.0,"Previous Day Delivery":849,"STOCK":420.0,"Pending Deliveries":567,">10Days":0,">20days":0,"Lat":23.7414953,"Long":92.7175188},{"DISTRIBUTOR_CODE":262684,"DISTRIBUTOR_NAME":"BINGPA INDANE GRAMIN VITRAK","SALES_AREA_NAME":"Imphal II LPG SA","STATE_NAME":"Manipur","DISTRICT_NAME":"KAMJONG","BACKLOG":1.73,"Previous Day Delivery":107,"STOCK":458.0,"Pending Deliveries":50,">10Days":0,">20days":48,"Lat":null,"Long":null},{"DISTRIBUTOR_CODE":259203,"DISTRIBUTOR_NAME":"BLUE MOUNTAIN RGGLV INDANE AGY","SALES_AREA_NAME":"LPG - AIZAWL II","STATE_NAME":"Mizoram","DISTRICT_NAME":"LAWNGTLAI","BACKLOG":0.07,"Previous Day Delivery":0,"STOCK":46.0,"Pending Deliveries":9,">10Days":0,">20days":0,"Lat":22.73952,"Long":93.05381},{"DISTRIBUTOR_CODE":317540,"DISTRIBUTOR_NAME":"BMS INDANE GRAMIN VITRAK","SALES_AREA_NAME":"LPG - AIZAWL II","STATE_NAME":"Mizoram","DISTRICT_NAME":"AIZAWL","BACKLOG":0.64,"Previous Day Delivery":117,"STOCK":79.0,"Pending Deliveries":54,">10Days":0,">20days":0,"Lat":null,"Long":null},{"DISTRIBUTOR_CODE":305477,"DISTRIBUTOR_NAME":"BORDERMAN GAS AGENCY,SHQ BSF","SALES_AREA_NAME":"Agartala LPG SA-II","STATE_NAME":"Tripura","DISTRICT_NAME":"TRIPURA SOUTH","BACKLOG":0.12,"Previous Day Delivery":3,"STOCK":162.0,"Pending Deliveries":2,">10Days":0,">20days":0,"Lat":23.329876,"Long":91.555071},{"DISTRIBUTOR_CODE":259212,"DISTRIBUTOR_NAME":"BOXANAGAR RGGLV INDANE AGENCY","SALES_AREA_NAME":"Agartala LPG SA","STATE_NAME":"Tripura","DISTRICT_NAME":"SEPAHIJALA","BACKLOG":0.69,"Previous Day Delivery":474,"STOCK":387.0,"Pending Deliveries":106,">10Days":0,">20days":0,"Lat":23.604419,"Long":91.168513},{"DISTRIBUTOR_CODE":263558,"DISTRIBUTOR_NAME":"BSF DHOLCHERA GAS AGENCY","SALES_AREA_NAME":"Silchar II LSA","STATE_NAME":"Assam","DISTRICT_NAME":"CACHAR","BACKLOG":0.48,"Previous Day Delivery":0,"STOCK":923.0,"Pending Deliveries":3,">10Days":2,">20days":0,"Lat":24.946765,"Long":92.706898},{"DISTRIBUTOR_CODE":321307,"DISTRIBUTOR_NAME":"BSF INDANE GAS AGENCY","SALES_AREA_NAME":"LPG - AIZAWL","STATE_NAME":"Mizoram","DISTRICT_NAME":"AIZAWL","BACKLOG":0.0,"Previous Day Delivery":14,"STOCK":242.0,"Pending Deliveries":0,">10Days":0,">20days":0,"Lat":null,"Long":null},{"DISTRIBUTOR_CODE":281392,"DISTRIBUTOR_NAME":"BUNGMUAL INDANE GRAMIN VITRAK","SALES_AREA_NAME":"Imphal II LPG SA","STATE_NAME":"Manipur","DISTRICT_NAME":"CHURACHANDPUR","BACKLOG":0.9,"Previous Day Delivery":77,"STOCK":312.0,"Pending Deliveries":109,">10Days":6,">20days":24,"Lat":24.334483,"Long":93.681556},{"DISTRIBUTOR_CODE":218715,"DISTRIBUTOR_NAME":"BWWA Gas Agency","SALES_AREA_NAME":"Agartala LPG SA","STATE_NAME":"Tripura","DISTRICT_NAME":"TRIPURA WEST","BACKLOG":1.46,"Previous Day Delivery":0,"STOCK":562.0,"Pending Deliveries":35,">10Days":0,">20days":0,"Lat":23.892632,"Long":91.289438},{"DISTRIBUTOR_CODE":280258,"DISTRIBUTOR_NAME":"C.L. INDANE GRAMIN VITRAK","SALES_AREA_NAME":"LPG - AIZAWL II","STATE_NAME":"Mizoram","DISTRICT_NAME":"HNAHTHIAL","BACKLOG":0.28,"Previous Day Delivery":5,"STOCK":187.0,"Pending Deliveries":13,">10Days":0,">20days":0,"Lat":23.139542,"Long":92.898058},{"DISTRIBUTOR_CODE":160064,"DISTRIBUTOR_NAME":"CANCHI INDANE SERVICE","SALES_AREA_NAME":"Imphal II LPG SA","STATE_NAME":"Manipur","DISTRICT_NAME":"IMPHAL WEST","BACKLOG":0.82,"Previous Day Delivery":269,"STOCK":267.0,"Pending Deliveries":197,">10Days":57,">20days":89,"Lat":24.784742,"Long":93.919209},{"DISTRIBUTOR_CODE":184604,"DISTRIBUTOR_NAME":"CAPITAL GAS AGENCY","SALES_AREA_NAME":"Agartala LPG SA-II","STATE_NAME":"Tripura","DISTRICT_NAME":"TRIPURA WEST","BACKLOG":1.22,"Previous Day Delivery":517,"STOCK":8.0,"Pending Deliveries":415,">10Days":6,">20days":0,"Lat":23.8338764,"Long":91.2903644},{"DISTRIBUTOR_CODE":160821,"DISTRIBUTOR_NAME":"CARAVAN GAS AGENCY","SALES_AREA_NAME":"LPG - AIZAWL","STATE_NAME":"Mizoram","DISTRICT_NAME":"AIZAWL","BACKLOG":1.09,"Previous Day Delivery":17,"STOCK":282.0,"Pending Deliveries":187,">10Days":0,">20days":0,"Lat":23.738713,"Long":92.750495},{"DISTRIBUTOR_CODE":279312,"DISTRIBUTOR_NAME":"CCR INDANE GRAMIN VITRAK","SALES_AREA_NAME":"LPG - AIZAWL","STATE_NAME":"Mizoram","DISTRICT_NAME":"AIZAWL","BACKLOG":0.0,"Previous Day Delivery":0,"STOCK":12.0,"Pending Deliveries":0,">10Days":0,">20days":0,"Lat":23.831864,"Long":92.632982},{"DISTRIBUTOR_CODE":295323,"DISTRIBUTOR_NAME":"CHABI INDANE GRAMIN VITRAK","SALES_AREA_NAME":"Silchar LPG SA","STATE_NAME":"Assam","DISTRICT_NAME":"CACHAR","BACKLOG":1.16,"Previous Day Delivery":367,"STOCK":411.0,"Pending Deliveries":181,">10Days":0,">20days":0,"Lat":24.68252,"Long":92.742965},{"DISTRIBUTOR_CODE":281455,"DISTRIBUTOR_NAME":"CHAILENGTA INDANE GRAMIN VITRA","SALES_AREA_NAME":"Dharmanagar LSA","STATE_NAME":"Tripura","DISTRICT_NAME":"DHALAI","BACKLOG":3.35,"Previous Day Delivery":0,"STOCK":393.0,"Pending Deliveries":214,">10Days":7,">20days":1,"Lat":23.943322,"Long":92.002219},{"DISTRIBUTOR_CODE":289707,"DISTRIBUTOR_NAME":"CHANDRA INDANE GRAMIN VITRAK","SALES_AREA_NAME":"Agartala LPG SA-II","STATE_NAME":"Tripura","DISTRICT_NAME":"SEPAHIJALA","BACKLOG":2.45,"Previous Day Delivery":35,"STOCK":243.0,"Pending Deliveries":210,">10Days":12,">20days":1,"Lat":23.725809,"Long":91.224532},{"DISTRIBUTOR_CODE":272745,"DISTRIBUTOR_NAME":"CHANDRAPUR INDANE GRAMIN VITRA","SALES_AREA_NAME":"Silchar LPG SA","STATE_NAME":"Assam","DISTRICT_NAME":"CACHAR","BACKLOG":0.09,"Previous Day Delivery":611,"STOCK":71.0,"Pending Deliveries":41,">10Days":0,">20days":0,"Lat":24.81063,"Long":92.92536},{"DISTRIBUTOR_CODE":278374,"DISTRIBUTOR_NAME":"CHHANGTE INDANE GRAMIN VITRAK","SALES_AREA_NAME":"LPG - AIZAWL II","STATE_NAME":"Mizoram","DISTRICT_NAME":"LAWNGTLAI","BACKLOG":0.11,"Previous Day Delivery":0,"STOCK":68.0,"Pending Deliveries":6,">10Days":0,">20days":0,"Lat":22.437049,"Long":92.744794},{"DISTRIBUTOR_CODE":299085,"DISTRIBUTOR_NAME":"CHINGAI K K INDANE GRAMIN VITRAK","SALES_AREA_NAME":"Imphal II LPG SA","STATE_NAME":"Manipur","DISTRICT_NAME":"UKHRUL","BACKLOG":0.49,"Previous Day Delivery":0,"STOCK":941.0,"Pending Deliveries":3,">10Days":0,">20days":0,"Lat":null,"Long":null},{"DISTRIBUTOR_CODE":161002,"DISTRIBUTOR_NAME":"CHOUDHURY GAS AGENCY","SALES_AREA_NAME":"Agartala LPG SA","STATE_NAME":"Tripura","DISTRICT_NAME":"KHOWAI","BACKLOG":0.0,"Previous Day Delivery":0,"STOCK":null,"Pending Deliveries":0,">10Days":0,">20days":0,"Lat":24.060095,"Long":91.606685},{"DISTRIBUTOR_CODE":288561,"DISTRIBUTOR_NAME":"CRPF PARIVAR KALYAN INDANE GAS AGEN","SALES_AREA_NAME":"Agartala LPG SA","STATE_NAME":"Tripura","DISTRICT_NAME":"TRIPURA WEST","BACKLOG":0.17,"Previous Day Delivery":0,"STOCK":95.0,"Pending Deliveries":3,">10Days":0,">20days":0,"Lat":23.894178,"Long":91.31601},{"DISTRIBUTOR_CODE":314333,"DISTRIBUTOR_NAME":"D&S INDANE GRAMIN VITRAK","SALES_AREA_NAME":"LPG - AIZAWL II","STATE_NAME":"Mizoram","DISTRICT_NAME":"AIZAWL","BACKLOG":0.0,"Previous Day Delivery":0,"STOCK":315.0,"Pending Deliveries":0,">10Days":0,">20days":0,"Lat":null,"Long":null},{"DISTRIBUTOR_CODE":316896,"DISTRIBUTOR_NAME":"DAKSHIN RAMCHANDRAGHAT INDANE GRAMI","SALES_AREA_NAME":"Agartala LPG SA","STATE_NAME":"Tripura","DISTRICT_NAME":"KHOWAI","BACKLOG":1.34,"Previous Day Delivery":258,"STOCK":133.0,"Pending Deliveries":160,">10Days":0,">20days":0,"Lat":24.001591,"Long":91.586802},{"DISTRIBUTOR_CODE":160795,"DISTRIBUTOR_NAME":"DAS GAS CONCERN","SALES_AREA_NAME":"Dharmanagar LSA","STATE_NAME":"Assam","DISTRICT_NAME":"KARIMGANJ","BACKLOG":0.05,"Previous Day Delivery":150,"STOCK":853.0,"Pending Deliveries":14,">10Days":1,">20days":0,"Lat":24.870634,"Long":92.367359},{"DISTRIBUTOR_CODE":161000,"DISTRIBUTOR_NAME":"DEEP GAS SERVICE","SALES_AREA_NAME":"Agartala LPG SA-II","STATE_NAME":"Tripura","DISTRICT_NAME":"GOMATI","BACKLOG":2.01,"Previous Day Delivery":878,"STOCK":156.0,"Pending Deliveries":992,">10Days":0,">20days":0,"Lat":23.541125,"Long":91.492901},{"DISTRIBUTOR_CODE":285572,"DISTRIBUTOR_NAME":"DHOLAI INDANE GRAMIN VITRAK","SALES_AREA_NAME":"Silchar II LSA","STATE_NAME":"Assam","DISTRICT_NAME":"HAILAKANDI","BACKLOG":2.05,"Previous Day Delivery":273,"STOCK":306.0,"Pending Deliveries":218,">10Days":19,">20days":0,"Lat":24.464686,"Long":92.557375},{"DISTRIBUTOR_CODE":160239,"DISTRIBUTOR_NAME":"DOUBLE TWO INDANE AGENCY","SALES_AREA_NAME":"Silchar LPG SA","STATE_NAME":"Assam","DISTRICT_NAME":"CACHAR","BACKLOG":2.01,"Previous Day Delivery":14,"STOCK":274.0,"Pending Deliveries":29,">10Days":2,">20days":0,"Lat":24.917519,"Long":92.986228},{"DISTRIBUTOR_CODE":345185,"DISTRIBUTOR_NAME":"Dhanbilash Indane Gramin Vitrak","SALES_AREA_NAME":"Dharmanagar LSA","STATE_NAME":"Tripura","DISTRICT_NAME":"UNAKOTI","BACKLOG":0.89,"Previous Day Delivery":300,"STOCK":54.0,"Pending Deliveries":56,">10Days":1,">20days":0,"Lat":24.248252,"Long":92.016376},{"DISTRIBUTOR_CODE":160820,"DISTRIBUTOR_NAME":"EL-PEE GAS AGENCY","SALES_AREA_NAME":"LPG - AIZAWL II","STATE_NAME":"Mizoram","DISTRICT_NAME":"LUNGLEI","BACKLOG":6.51,"Previous Day Delivery":30,"STOCK":50.0,"Pending Deliveries":998,">10Days":26,">20days":0,"Lat":22.8912018,"Long":92.7415957},{"DISTRIBUTOR_CODE":314745,"DISTRIBUTOR_NAME":"ELDEE INDANE GRAMIN VITRAK","SALES_AREA_NAME":"LPG - AIZAWL","STATE_NAME":"Mizoram","DISTRICT_NAME":"SAITUAL","BACKLOG":0.36,"Previous Day Delivery":0,"STOCK":59.0,"Pending Deliveries":9,">10Days":0,">20days":0,"Lat":null,"Long":null},{"DISTRIBUTOR_CODE":160796,"DISTRIBUTOR_NAME":"ELLORA GAS AGENCY","SALES_AREA_NAME":"Silchar LPG SA","STATE_NAME":"Assam","DISTRICT_NAME":"KARIMGANJ","BACKLOG":3.18,"Previous Day Delivery":674,"STOCK":127.0,"Pending Deliveries":1592,">10Days":0,">20days":0,"Lat":24.871125,"Long":92.558096},{"DISTRIBUTOR_CODE":160806,"DISTRIBUTOR_NAME":"EMOINU GAS AGENCY","SALES_AREA_NAME":"Silchar LPG SA","STATE_NAME":"Manipur","DISTRICT_NAME":"JIRIBAM","BACKLOG":1.42,"Previous Day Delivery":54,"STOCK":300.0,"Pending Deliveries":67,">10Days":0,">20days":0,"Lat":null,"Long":null},{"DISTRIBUTOR_CODE":314108,"DISTRIBUTOR_NAME":"EREICHA INDANE GRAMIN VITRAK","SALES_AREA_NAME":"IMPHAL III LPG SA","STATE_NAME":"Manipur","DISTRICT_NAME":"THOUBAL","BACKLOG":1.92,"Previous Day Delivery":6,"STOCK":0.0,"Pending Deliveries":252,">10Days":35,">20days":175,"Lat":null,"Long":null},{"DISTRIBUTOR_CODE":171920,"DISTRIBUTOR_NAME":"FIDELIA INDANE SERVICE","SALES_AREA_NAME":"LPG - AIZAWL II","STATE_NAME":"Mizoram","DISTRICT_NAME":"LUNGLEI","BACKLOG":2.61,"Previous Day Delivery":229,"STOCK":122.0,"Pending Deliveries":370,">10Days":48,">20days":0,"Lat":22.977695,"Long":92.923346},{"DISTRIBUTOR_CODE":321047,"DISTRIBUTOR_NAME":"G C SILCHAR INDANE SERVICE","SALES_AREA_NAME":"Silchar LPG SA","STATE_NAME":"Assam","DISTRICT_NAME":"CACHAR","BACKLOG":0.15,"Previous Day Delivery":36,"STOCK":218.0,"Pending Deliveries":2,">10Days":0,">20days":0,"Lat":null,"Long":null},{"DISTRIBUTOR_CODE":290559,"DISTRIBUTOR_NAME":"GANDACHARA INDANE GRAMIN VITRAK","SALES_AREA_NAME":"Dharmanagar LSA","STATE_NAME":"Tripura","DISTRICT_NAME":"DHALAI","BACKLOG":2.03,"Previous Day Delivery":282,"STOCK":126.0,"Pending Deliveries":228,">10Days":0,">20days":0,"Lat":23.590604,"Long":91.806558},{"DISTRIBUTOR_CODE":279835,"DISTRIBUTOR_NAME":"GANDHIGRAM INDANE GRAMIN VITRA","SALES_AREA_NAME":"Agartala LPG SA","STATE_NAME":"Tripura","DISTRICT_NAME":"TRIPURA WEST","BACKLOG":1.54,"Previous Day Delivery":449,"STOCK":562.0,"Pending Deliveries":431,">10Days":7,">20days":0,"Lat":23.888004,"Long":91.282494},{"DISTRIBUTOR_CODE":334765,"DISTRIBUTOR_NAME":"GARJEE BAZAR INDANE GRAMIN VITRAK","SALES_AREA_NAME":"Agartala LPG SA-II","STATE_NAME":"Tripura","DISTRICT_NAME":"GOMATI","BACKLOG":0.14,"Previous Day Delivery":149,"STOCK":97.0,"Pending Deliveries":16,">10Days":0,">20days":0,"Lat":23.427422,"Long":91.505917},{"DISTRIBUTOR_CODE":160118,"DISTRIBUTOR_NAME":"GAS-O-FLAME","SALES_AREA_NAME":"Agartala LPG SA","STATE_NAME":"Tripura","DISTRICT_NAME":"TRIPURA WEST","BACKLOG":1.95,"Previous Day Delivery":362,"STOCK":7.0,"Pending Deliveries":707,">10Days":25,">20days":0,"Lat":23.830748,"Long":91.283259},{"DISTRIBUTOR_CODE":160999,"DISTRIBUTOR_NAME":"GASCO","SALES_AREA_NAME":"Agartala LPG SA","STATE_NAME":"Tripura","DISTRICT_NAME":"TRIPURA WEST","BACKLOG":2.3,"Previous Day Delivery":98,"STOCK":11.0,"Pending Deliveries":587,">10Days":1,">20days":0,"Lat":23.830732,"Long":91.283259},{"DISTRIBUTOR_CODE":160802,"DISTRIBUTOR_NAME":"GAZZI GAS  AGENCY","SALES_AREA_NAME":"Dharmanagar LSA","STATE_NAME":"Assam","DISTRICT_NAME":"KARIMGANJ","BACKLOG":2.52,"Previous Day Delivery":644,"STOCK":439.0,"Pending Deliveries":1171,">10Days":0,">20days":0,"Lat":24.574914,"Long":92.453041},{"DISTRIBUTOR_CODE":231562,"DISTRIBUTOR_NAME":"GBD INDANE SERVICE","SALES_AREA_NAME":"Imphal II LPG SA","STATE_NAME":"Manipur","DISTRICT_NAME":"IMPHAL EAST","BACKLOG":0.28,"Previous Day Delivery":0,"STOCK":133.0,"Pending Deliveries":46,">10Days":3,">20days":0,"Lat":24.822841,"Long":93.977193},{"DISTRIBUTOR_CODE":273402,"DISTRIBUTOR_NAME":"GEE PEE INDANE","SALES_AREA_NAME":"Silchar II LSA","STATE_NAME":"Assam","DISTRICT_NAME":"CACHAR","BACKLOG":3.28,"Previous Day Delivery":346,"STOCK":532.0,"Pending Deliveries":748,">10Days":0,">20days":0,"Lat":24.812428,"Long":92.779828},{"DISTRIBUTOR_CODE":260483,"DISTRIBUTOR_NAME":"GRACE INDANE GRAMIN VITRAK","SALES_AREA_NAME":"LPG - AIZAWL II","STATE_NAME":"Mizoram","DISTRICT_NAME":"SERCHHIP","BACKLOG":0.0,"Previous Day Delivery":1,"STOCK":189.0,"Pending Deliveries":0,">10Days":0,">20days":0,"Lat":23.2809425,"Long":92.7737534},{"DISTRIBUTOR_CODE":269610,"DISTRIBUTOR_NAME":"H.S.INDANE GRAMIN VITRAK","SALES_AREA_NAME":"IMPHAL III LPG SA","STATE_NAME":"Manipur","DISTRICT_NAME":"KANGPOKPI","BACKLOG":3.34,"Previous Day Delivery":0,"STOCK":533.0,"Pending Deliveries":250,">10Days":0,">20days":70,"Lat":null,"Long":null},{"DISTRIBUTOR_CODE":287925,"DISTRIBUTOR_NAME":"HAILAKANDI INDANE SERVICE","SALES_AREA_NAME":"Silchar II LSA","STATE_NAME":"Assam","DISTRICT_NAME":"HAILAKANDI","BACKLOG":2.65,"Previous Day Delivery":245,"STOCK":470.0,"Pending Deliveries":529,">10Days":1,">20days":0,"Lat":24.670552,"Long":92.563719},{"DISTRIBUTOR_CODE":181072,"DISTRIBUTOR_NAME":"HAOKIP GAS SERVICE","SALES_AREA_NAME":"IMPHAL III LPG SA","STATE_NAME":"Manipur","DISTRICT_NAME":"TENGNOUPAL","BACKLOG":0.66,"Previous Day Delivery":0,"STOCK":134.0,"Pending Deliveries":13,">10Days":0,">20days":0,"Lat":null,"Long":null},{"DISTRIBUTOR_CODE":265276,"DISTRIBUTOR_NAME":"HARAN VALLEY INDANE GRAMIN VIT","SALES_AREA_NAME":"Imphal II LPG SA","STATE_NAME":"Manipur","DISTRICT_NAME":"BISHNUPUR","BACKLOG":3.8,"Previous Day Delivery":13,"STOCK":303.0,"Pending Deliveries":965,">10Days":18,">20days":22,"Lat":24.44735,"Long":93.731412},{"DISTRIBUTOR_CODE":292583,"DISTRIBUTOR_NAME":"HEINGANG INDANE GRAMIN VITRAK","SALES_AREA_NAME":"Imphal II LPG SA","STATE_NAME":"Manipur","DISTRICT_NAME":"IMPHAL EAST","BACKLOG":0.33,"Previous Day Delivery":1,"STOCK":183.0,"Pending Deliveries":26,">10Days":0,">20days":0,"Lat":24.838379,"Long":93.949351},{"DISTRIBUTOR_CODE":279125,"DISTRIBUTOR_NAME":"HEIROK INDANE GRAMIN VITRAK","SALES_AREA_NAME":"IMPHAL III LPG SA","STATE_NAME":"Manipur","DISTRICT_NAME":"THOUBAL","BACKLOG":5.84,"Previous Day Delivery":19,"STOCK":48.0,"Pending Deliveries":380,">10Days":70,">20days":167,"Lat":24.585546,"Long":94.06709},{"DISTRIBUTOR_CODE":288520,"DISTRIBUTOR_NAME":"HEZAMARA INDANE GRAMIN VITRAK","SALES_AREA_NAME":"Agartala LPG SA","STATE_NAME":"Tripura","DISTRICT_NAME":"TRIPURA WEST","BACKLOG":1.28,"Previous Day Delivery":269,"STOCK":406.0,"Pending Deliveries":280,">10Days":0,">20days":0,"Lat":23.997195,"Long":91.425256},{"DISTRIBUTOR_CODE":287210,"DISTRIBUTOR_NAME":"HIYANGTHANG INDANE GRAMIN VITRAK","SALES_AREA_NAME":"Imphal II LPG SA","STATE_NAME":"Manipur","DISTRICT_NAME":"IMPHAL WEST","BACKLOG":0.1,"Previous Day Delivery":231,"STOCK":662.0,"Pending Deliveries":13,">10Days":0,">20days":0,"Lat":24.72938,"Long":93.900096},{"DISTRIBUTOR_CODE":320291,"DISTRIBUTOR_NAME":"HONGMAHN GULAMACHU INDANE GRAMIN VI","SALES_AREA_NAME":"IMPHAL III LPG SA","STATE_NAME":"Manipur","DISTRICT_NAME":"KANGPOKPI","BACKLOG":0.21,"Previous Day Delivery":0,"STOCK":43.0,"Pending Deliveries":9,">10Days":0,">20days":0,"Lat":null,"Long":null},{"DISTRIBUTOR_CODE":160832,"DISTRIBUTOR_NAME":"HPC GAS SERVICE","SALES_AREA_NAME":"Silchar II LSA","STATE_NAME":"Assam","DISTRICT_NAME":"HAILAKANDI","BACKLOG":0.0,"Previous Day Delivery":0,"STOCK":null,"Pending Deliveries":0,">10Days":0,">20days":0,"Lat":24.853123,"Long":92.592889},{"DISTRIBUTOR_CODE":272610,"DISTRIBUTOR_NAME":"HQ PALLEL INDANE AGENCY","SALES_AREA_NAME":"IMPHAL III LPG SA","STATE_NAME":"Manipur","DISTRICT_NAME":"TENGNOUPAL","BACKLOG":0.08,"Previous Day Delivery":0,"STOCK":1439.0,"Pending Deliveries":4,">10Days":1,">20days":1,"Lat":null,"Long":null},{"DISTRIBUTOR_CODE":160889,"DISTRIBUTOR_NAME":"HRANGCHAL GAS AGENCY","SALES_AREA_NAME":"Imphal II LPG SA","STATE_NAME":"Manipur","DISTRICT_NAME":"IMPHAL WEST","BACKLOG":1.04,"Previous Day Delivery":73,"STOCK":83.0,"Pending Deliveries":160,">10Days":19,">20days":104,"Lat":24.800285,"Long":93.938935},{"DISTRIBUTOR_CODE":315485,"DISTRIBUTOR_NAME":"HUILENG INDANE GRAMIN VITRAK","SALES_AREA_NAME":"Imphal II LPG SA","STATE_NAME":"Manipur","DISTRICT_NAME":"UKHRUL","BACKLOG":0.0,"Previous Day Delivery":18,"STOCK":244.0,"Pending Deliveries":0,">10Days":0,">20days":0,"Lat":null,"Long":null},{"DISTRIBUTOR_CODE":291850,"DISTRIBUTOR_NAME":"HUNDUNG INDANE GRAMIN VITRAK","SALES_AREA_NAME":"Imphal II LPG SA","STATE_NAME":"Manipur","DISTRICT_NAME":"UKHRUL","BACKLOG":1.43,"Previous Day Delivery":0,"STOCK":687.0,"Pending Deliveries":29,">10Days":3,">20days":24,"Lat":25.0844034,"Long":94.3574244},{"DISTRIBUTOR_CODE":161336,"DISTRIBUTOR_NAME":"IBOYAIMA TADUBI GAS AGENCY","SALES_AREA_NAME":"IMPHAL III LPG SA","STATE_NAME":"Manipur","DISTRICT_NAME":"SENAPATI","BACKLOG":2.59,"Previous Day Delivery":0,"STOCK":563.0,"Pending Deliveries":209,">10Days":43,">20days":68,"Lat":25.480942,"Long":94.138496},{"DISTRIBUTOR_CODE":161335,"DISTRIBUTOR_NAME":"IMPHAL LPG SERVICE","SALES_AREA_NAME":"IMPHAL III LPG SA","STATE_NAME":"Manipur","DISTRICT_NAME":"IMPHAL WEST","BACKLOG":1.4,"Previous Day Delivery":113,"STOCK":147.0,"Pending Deliveries":264,">10Days":76,">20days":105,"Lat":24.803842,"Long":93.932371},{"DISTRIBUTOR_CODE":160240,"DISTRIBUTOR_NAME":"ISHITA GAS SERVICE","SALES_AREA_NAME":"Silchar LPG SA","STATE_NAME":"Assam","DISTRICT_NAME":"CACHAR","BACKLOG":1.04,"Previous Day Delivery":298,"STOCK":196.0,"Pending Deliveries":371,">10Days":0,">20days":0,"Lat":24.81667,"Long":92.794703},{"DISTRIBUTOR_CODE":275200,"DISTRIBUTOR_NAME":"J.K.INDANE GRAMIN VITRAK","SALES_AREA_NAME":"Agartala LPG SA-II","STATE_NAME":"Tripura","DISTRICT_NAME":"TRIPURA SOUTH","BACKLOG":1.06,"Previous Day Delivery":89,"STOCK":141.0,"Pending Deliveries":67,">10Days":14,">20days":1,"Lat":23.123199,"Long":91.521972},{"DISTRIBUTOR_CODE":275375,"DISTRIBUTOR_NAME":"J.RONGMEI S.K.INDANE GRAMIN VI","SALES_AREA_NAME":"IMPHAL III LPG SA","STATE_NAME":"Manipur","DISTRICT_NAME":"IMPHAL WEST","BACKLOG":1.1,"Previous Day Delivery":1,"STOCK":451.0,"Pending Deliveries":77,">10Days":21,">20days":50,"Lat":24.665382,"Long":93.899737},{"DISTRIBUTOR_CODE":274066,"DISTRIBUTOR_NAME":"JAGADAMBEY INDANE GRAMIN VITRA","SALES_AREA_NAME":"Silchar LPG SA","STATE_NAME":"Assam","DISTRICT_NAME":"CACHAR","BACKLOG":3.33,"Previous Day Delivery":274,"STOCK":352.0,"Pending Deliveries":556,">10Days":4,">20days":0,"Lat":24.788951,"Long":93.000287},{"DISTRIBUTOR_CODE":296249,"DISTRIBUTOR_NAME":"JAMPUIJALA INDANE GRAMIN VITRAK","SALES_AREA_NAME":"Agartala LPG SA-II","STATE_NAME":"Tripura","DISTRICT_NAME":"SEPAHIJALA","BACKLOG":0.15,"Previous Day Delivery":337,"STOCK":311.0,"Pending Deliveries":32,">10Days":0,">20days":2,"Lat":23.69798,"Long":91.458131},{"DISTRIBUTOR_CODE":160890,"DISTRIBUTOR_NAME":"JEMON GAS SERVICE","SALES_AREA_NAME":"IMPHAL III LPG SA","STATE_NAME":"Manipur","DISTRICT_NAME":"IMPHAL WEST","BACKLOG":0.89,"Previous Day Delivery":475,"STOCK":354.0,"Pending Deliveries":176,">10Days":53,">20days":28,"Lat":24.783142,"Long":93.937661},{"DISTRIBUTOR_CODE":298833,"DISTRIBUTOR_NAME":"JOYPUR INDANE GRAMIN VITRAK","SALES_AREA_NAME":"Silchar LPG SA","STATE_NAME":"Assam","DISTRICT_NAME":"CACHAR","BACKLOG":0.0,"Previous Day Delivery":0,"STOCK":null,"Pending Deliveries":0,">10Days":0,">20days":0,"Lat":null,"Long":null},{"DISTRIBUTOR_CODE":160120,"DISTRIBUTOR_NAME":"JOYRAM GAS AGENCY","SALES_AREA_NAME":"Dharmanagar LSA","STATE_NAME":"Tripura","DISTRICT_NAME":"TRIPURA NORTH","BACKLOG":2.05,"Previous Day Delivery":723,"STOCK":15.0,"Pending Deliveries":722,">10Days":1,">20days":0,"Lat":24.389264,"Long":92.160559},{"DISTRIBUTOR_CODE":160893,"DISTRIBUTOR_NAME":"JS INDANE SERVICE","SALES_AREA_NAME":"IMPHAL III LPG SA","STATE_NAME":"Manipur","DISTRICT_NAME":"KANGPOKPI","BACKLOG":0.34,"Previous Day Delivery":0,"STOCK":88.0,"Pending Deliveries":34,">10Days":15,">20days":0,"Lat":null,"Long":null},{"DISTRIBUTOR_CODE":273955,"DISTRIBUTOR_NAME":"'N'VANLAIPHAI INDANE GRAMIN VI","SALES_AREA_NAME":"LPG - AIZAWL II","STATE_NAME":"Mizoram","DISTRICT_NAME":"SERCHHIP","BACKLOG":3.12,"Previous Day Delivery":0,"STOCK":437.0,"Pending Deliveries":126,">10Days":0,">20days":0,"Lat":23.129181,"Long":93.057626},{"DISTRIBUTOR_CODE":160837,"DISTRIBUTOR_NAME":"444 GAS AGENCY","SALES_AREA_NAME":"Silchar II LSA","STATE_NAME":"Assam","DISTRICT_NAME":"CACHAR","BACKLOG":0.14,"Previous Day Delivery":0,"STOCK":14.0,"Pending Deliveries":3,">10Days":1,">20days":1,"Lat":24.781426,"Long":92.78938},{"DISTRIBUTOR_CODE":327502,"DISTRIBUTOR_NAME":"ALGAPUR INDANE GRAMIN VITRAK","SALES_AREA_NAME":"Silchar II LSA","STATE_NAME":"Assam","DISTRICT_NAME":"HAILAKANDI","BACKLOG":3.53,"Previous Day Delivery":140,"STOCK":208.0,"Pending Deliveries":164,">10Days":0,">20days":0,"Lat":24.758859,"Long":92.59478},{"DISTRIBUTOR_CODE":293294,"DISTRIBUTOR_NAME":"ALOICHERRA INDANE GRAMIN VITRAK","SALES_AREA_NAME":"Silchar II LSA","STATE_NAME":"Assam","DISTRICT_NAME":"HAILAKANDI","BACKLOG":5.77,"Previous Day Delivery":81,"STOCK":230.0,"Pending Deliveries":693,">10Days":231,">20days":0,"Lat":24.406898,"Long":92.553196},{"DISTRIBUTOR_CODE":293045,"DISTRIBUTOR_NAME":"AMELIA RWBAM GAS AGENCY","SALES_AREA_NAME":"Agartala LPG SA-II","STATE_NAME":"Tripura","DISTRICT_NAME":"TRIPURA WEST","BACKLOG":1.86,"Previous Day Delivery":171,"STOCK":354.0,"Pending Deliveries":252,">10Days":0,">20days":0,"Lat":null,"Long":null},{"DISTRIBUTOR_CODE":273835,"DISTRIBUTOR_NAME":"AMITA INDANE GRAMIN VITRAK","SALES_AREA_NAME":"Silchar LPG SA","STATE_NAME":"Assam","DISTRICT_NAME":"CACHAR","BACKLOG":0.0,"Previous Day Delivery":0,"STOCK":null,"Pending Deliveries":0,">10Days":0,">20days":0,"Lat":24.8155807,"Long":92.9215795},{"DISTRIBUTOR_CODE":313678,"DISTRIBUTOR_NAME":"AMPINAGAR INDANE GRAMIN VITRAK","SALES_AREA_NAME":"Agartala LPG SA-II","STATE_NAME":"Tripura","DISTRICT_NAME":"GOMATI","BACKLOG":1.04,"Previous Day Delivery":188,"STOCK":192.0,"Pending Deliveries":99,">10Days":0,">20days":0,"Lat":23.675297,"Long":91.63412},{"DISTRIBUTOR_CODE":262685,"DISTRIBUTOR_NAME":"ANGAM INDANE GRAMIN VITRAK","SALES_AREA_NAME":"Imphal II LPG SA","STATE_NAME":"Manipur","DISTRICT_NAME":"UKHRUL","BACKLOG":0.1,"Previous Day Delivery":0,"STOCK":309.0,"Pending Deliveries":9,">10Days":2,">20days":4,"Lat":25.00515,"Long":94.332267},{"DISTRIBUTOR_CODE":262433,"DISTRIBUTOR_NAME":"ANGSLA INDANE GRAMIN VITRAK","SALES_AREA_NAME":"Agartala LPG SA","STATE_NAME":"Tripura","DISTRICT_NAME":"TRIPURA WEST","BACKLOG":1.9,"Previous Day Delivery":1,"STOCK":122.0,"Pending Deliveries":97,">10Days":3,">20days":0,"Lat":23.861822,"Long":91.475346},{"DISTRIBUTOR_CODE":289119,"DISTRIBUTOR_NAME":"ANITA INDANE AGENCY","SALES_AREA_NAME":"Silchar LPG SA","STATE_NAME":"Assam","DISTRICT_NAME":"CACHAR","BACKLOG":1.51,"Previous Day Delivery":352,"STOCK":676.0,"Pending Deliveries":374,">10Days":0,">20days":0,"Lat":24.834788,"Long":92.810566},{"DISTRIBUTOR_CODE":315488,"DISTRIBUTOR_NAME":"ANKHASUO INDANE GRAMIN VITRAK","SALES_AREA_NAME":"Silchar LPG SA","STATE_NAME":"Manipur","DISTRICT_NAME":"CHURACHANDPUR","BACKLOG":1.15,"Previous Day Delivery":80,"STOCK":245.0,"Pending Deliveries":71,">10Days":0,">20days":0,"Lat":null,"Long":null},{"DISTRIBUTOR_CODE":262683,"DISTRIBUTOR_NAME":"ASHANGBI INDANE GRAMIN VITRAK","SALES_AREA_NAME":"IMPHAL III LPG SA","STATE_NAME":"Manipur","DISTRICT_NAME":"KAKCHING","BACKLOG":3.91,"Previous Day Delivery":154,"STOCK":183.0,"Pending Deliveries":222,">10Days":110,">20days":12,"Lat":null,"Long":null},{"DISTRIBUTOR_CODE":161005,"DISTRIBUTOR_NAME":"ASHIRBAD GAS AGENCY","SALES_AREA_NAME":"Agartala LPG SA","STATE_NAME":"Tripura","DISTRICT_NAME":"TRIPURA WEST","BACKLOG":1.5,"Previous Day Delivery":507,"STOCK":234.0,"Pending Deliveries":488,">10Days":0,">20days":0,"Lat":23.833299,"Long":91.295066},{"DISTRIBUTOR_CODE":253961,"DISTRIBUTOR_NAME":"ASHIYA INDANE GAS SERVICE","SALES_AREA_NAME":"Silchar LPG SA","STATE_NAME":"Assam","DISTRICT_NAME":"CACHAR","BACKLOG":1.7,"Previous Day Delivery":537,"STOCK":398.0,"Pending Deliveries":595,">10Days":13,">20days":0,"Lat":24.797658,"Long":92.792222},{"DISTRIBUTOR_CODE":234439,"DISTRIBUTOR_NAME":"ATHOKPAM INDANE SERVICE","SALES_AREA_NAME":"IMPHAL III LPG SA","STATE_NAME":"Manipur","DISTRICT_NAME":"THOUBAL","BACKLOG":1.27,"Previous Day Delivery":312,"STOCK":409.0,"Pending Deliveries":455,">10Days":183,">20days":30,"Lat":24.6329614,"Long":94.0094881},{"DISTRIBUTOR_CODE":160818,"DISTRIBUTOR_NAME":"AUVA GAS AGENCY","SALES_AREA_NAME":"Silchar II LSA","STATE_NAME":"Mizoram","DISTRICT_NAME":"KOLASIB","BACKLOG":1.6,"Previous Day Delivery":157,"STOCK":248.0,"Pending Deliveries":120,">10Days":27,">20days":0,"Lat":24.449625,"Long":92.739875},{"DISTRIBUTOR_CODE":264862,"DISTRIBUTOR_NAME":"AXIAL INDANE","SALES_AREA_NAME":"IMPHAL III LPG SA","STATE_NAME":"Manipur","DISTRICT_NAME":"NONEY","BACKLOG":0.34,"Previous Day Delivery":0,"STOCK":132.0,"Pending Deliveries":10,">10Days":6,">20days":0,"Lat":null,"Long":null},{"DISTRIBUTOR_CODE":181390,"DISTRIBUTOR_NAME":"B.B.GAS AGENCY","SALES_AREA_NAME":"Dharmanagar LSA","STATE_NAME":"Tripura","DISTRICT_NAME":"DHALAI","BACKLOG":1.6,"Previous Day Delivery":358,"STOCK":40.0,"Pending Deliveries":427,">10Days":0,">20days":0,"Lat":23.920266,"Long":91.844276},{"DISTRIBUTOR_CODE":274215,"DISTRIBUTOR_NAME":"NATAWAR INDANE GRAMIN VITRAK","SALES_AREA_NAME":"Silchar II LSA","STATE_NAME":"Assam","DISTRICT_NAME":"HAILAKANDI","BACKLOG":2.43,"Previous Day Delivery":62,"STOCK":16.0,"Pending Deliveries":224,">10Days":0,">20days":0,"Lat":24.840359,"Long":92.629915},{"DISTRIBUTOR_CODE":282060,"DISTRIBUTOR_NAME":"NATUN BAZAR INDANE GRAMIN VITR","SALES_AREA_NAME":"Agartala LPG SA-II","STATE_NAME":"Tripura","DISTRICT_NAME":"GOMATI","BACKLOG":0.01,"Previous Day Delivery":309,"STOCK":164.0,"Pending Deliveries":2,">10Days":0,">20days":0,"Lat":23.431266,"Long":91.752188},{"DISTRIBUTOR_CODE":161008,"DISTRIBUTOR_NAME":"NEERMAHAL GAS AGENCY","SALES_AREA_NAME":"Agartala LPG SA-II","STATE_NAME":"Tripura","DISTRICT_NAME":"SEPAHIJALA","BACKLOG":1.49,"Previous Day Delivery":154,"STOCK":738.0,"Pending Deliveries":371,">10Days":0,">20days":0,"Lat":23.476255,"Long":91.265234},{"DISTRIBUTOR_CODE":314105,"DISTRIBUTOR_NAME":"NEW CANNON INDANE GRAMIN VITRAK","SALES_AREA_NAME":"Imphal II LPG SA","STATE_NAME":"Manipur","DISTRICT_NAME":"UKHRUL","BACKLOG":0.43,"Previous Day Delivery":3,"STOCK":201.0,"Pending Deliveries":17,">10Days":2,">20days":10,"Lat":null,"Long":null},{"DISTRIBUTOR_CODE":160940,"DISTRIBUTOR_NAME":"NEW RED SHIELD GAS AGENCY","SALES_AREA_NAME":"IMPHAL III LPG SA","STATE_NAME":"Manipur","DISTRICT_NAME":"IMPHAL WEST","BACKLOG":1.81,"Previous Day Delivery":71,"STOCK":8.0,"Pending Deliveries":33,">10Days":5,">20days":18,"Lat":24.943802,"Long":93.842291},{"DISTRIBUTOR_CODE":297861,"DISTRIBUTOR_NAME":"NKD GAS SERVICE","SALES_AREA_NAME":"Dharmanagar LSA","STATE_NAME":"Tripura","DISTRICT_NAME":"DHALAI","BACKLOG":2.32,"Previous Day Delivery":262,"STOCK":515.0,"Pending Deliveries":441,">10Days":0,">20days":1,"Lat":null,"Long":null},{"DISTRIBUTOR_CODE":160842,"DISTRIBUTOR_NAME":"NO.2 MGAR ASSAM RIFLES","SALES_AREA_NAME":"Silchar LPG SA","STATE_NAME":"Assam","DISTRICT_NAME":"CACHAR","BACKLOG":0.0,"Previous Day Delivery":0,"STOCK":450.0,"Pending Deliveries":0,">10Days":0,">20days":0,"Lat":null,"Long":null},{"DISTRIBUTOR_CODE":281730,"DISTRIBUTOR_NAME":"NONEY INDANE GRAMIN VITRAK","SALES_AREA_NAME":"IMPHAL III LPG SA","STATE_NAME":"Manipur","DISTRICT_NAME":"NONEY","BACKLOG":0.46,"Previous Day Delivery":0,"STOCK":132.0,"Pending Deliveries":15,">10Days":2,">20days":12,"Lat":null,"Long":null},{"DISTRIBUTOR_CODE":295790,"DISTRIBUTOR_NAME":"NONGPOK SEKMAI JCD INDANE GRAMIN VI","SALES_AREA_NAME":"IMPHAL III LPG SA","STATE_NAME":"Manipur","DISTRICT_NAME":"THOUBAL","BACKLOG":1.72,"Previous Day Delivery":15,"STOCK":1.0,"Pending Deliveries":112,">10Days":35,">20days":27,"Lat":24.651542,"Long":94.093027},{"DISTRIBUTOR_CODE":259210,"DISTRIBUTOR_NAME":"NUTEI RGGLV INDANE AGENCY","SALES_AREA_NAME":"LPG - AIZAWL II","STATE_NAME":"Mizoram","DISTRICT_NAME":"LAWNGTLAI","BACKLOG":4.75,"Previous Day Delivery":418,"STOCK":336.0,"Pending Deliveries":572,">10Days":0,">20days":0,"Lat":22.618087,"Long":92.648025},{"DISTRIBUTOR_CODE":290110,"DISTRIBUTOR_NAME":"OINAM TANGLEI INDANE GRAMIN VITRAK","SALES_AREA_NAME":"Imphal II LPG SA","STATE_NAME":"Manipur","DISTRICT_NAME":"BISHNUPUR","BACKLOG":1.52,"Previous Day Delivery":0,"STOCK":1.0,"Pending Deliveries":198,">10Days":9,">20days":64,"Lat":24.699278,"Long":93.808142},{"DISTRIBUTOR_CODE":182967,"DISTRIBUTOR_NAME":"OM GAS AGENCY","SALES_AREA_NAME":"Silchar II LSA","STATE_NAME":"Assam","DISTRICT_NAME":"CACHAR","BACKLOG":1.95,"Previous Day Delivery":398,"STOCK":69.0,"Pending Deliveries":602,">10Days":14,">20days":0,"Lat":24.674849,"Long":92.855373},{"DISTRIBUTOR_CODE":283911,"DISTRIBUTOR_NAME":"OM INDANE GRAMIN VITRAK","SALES_AREA_NAME":"Dharmanagar LSA","STATE_NAME":"Tripura","DISTRICT_NAME":"TRIPURA NORTH","BACKLOG":1.22,"Previous Day Delivery":131,"STOCK":221.0,"Pending Deliveries":202,">10Days":0,">20days":0,"Lat":24.241714,"Long":92.284361},{"DISTRIBUTOR_CODE":160187,"DISTRIBUTOR_NAME":"ONGC CACHAR PROJ.ECCSL","SALES_AREA_NAME":"Silchar II LSA","STATE_NAME":"Assam","DISTRICT_NAME":"CACHAR","BACKLOG":0.64,"Previous Day Delivery":0,"STOCK":6.0,"Pending Deliveries":7,">10Days":5,">20days":1,"Lat":24.8267807,"Long":92.7372264},{"DISTRIBUTOR_CODE":259209,"DISTRIBUTOR_NAME":"P.C.RGGLV INDANE GAS AGENCY","SALES_AREA_NAME":"LPG - AIZAWL II","STATE_NAME":"Mizoram","DISTRICT_NAME":"LUNGLEI","BACKLOG":0.0,"Previous Day Delivery":173,"STOCK":208.0,"Pending Deliveries":0,">10Days":0,">20days":0,"Lat":22.6193931,"Long":92.8721114},{"DISTRIBUTOR_CODE":290794,"DISTRIBUTOR_NAME":"PALONGHAT RF INDANE GRAMIN VITRAK","SALES_AREA_NAME":"Silchar II LSA","STATE_NAME":"Assam","DISTRICT_NAME":"CACHAR","BACKLOG":2.04,"Previous Day Delivery":275,"STOCK":367.0,"Pending Deliveries":424,">10Days":30,">20days":0,"Lat":24.660007,"Long":92.876113},{"DISTRIBUTOR_CODE":265644,"DISTRIBUTOR_NAME":"PANCHAM AR INDANE AGENCY","SALES_AREA_NAME":"IMPHAL III LPG SA","STATE_NAME":"Manipur","DISTRICT_NAME":"SENAPATI","BACKLOG":0.6,"Previous Day Delivery":1,"STOCK":8.0,"Pending Deliveries":8,">10Days":7,">20days":0,"Lat":25.419443,"Long":94.107854},{"DISTRIBUTOR_CODE":283867,"DISTRIBUTOR_NAME":"PANCHGRAM INDANE GRAMIN VITRAK","SALES_AREA_NAME":"Silchar II LSA","STATE_NAME":"Assam","DISTRICT_NAME":"HAILAKANDI","BACKLOG":2.97,"Previous Day Delivery":0,"STOCK":133.0,"Pending Deliveries":405,">10Days":9,">20days":2,"Lat":24.857004,"Long":92.606985},{"DISTRIBUTOR_CODE":314335,"DISTRIBUTOR_NAME":"PASCHIM NALCHAR INDANE GRAMIN VITRA","SALES_AREA_NAME":"Agartala LPG SA","STATE_NAME":"Tripura","DISTRICT_NAME":"SEPAHIJALA","BACKLOG":1.53,"Previous Day Delivery":19,"STOCK":346.0,"Pending Deliveries":233,">10Days":0,">20days":0,"Lat":23.534398,"Long":91.356796},{"DISTRIBUTOR_CODE":160804,"DISTRIBUTOR_NAME":"PATHERKANDI GAS AGENCY","SALES_AREA_NAME":"Dharmanagar LSA","STATE_NAME":"Assam","DISTRICT_NAME":"KARIMGANJ","BACKLOG":0.99,"Previous Day Delivery":325,"STOCK":536.0,"Pending Deliveries":354,">10Days":0,">20days":0,"Lat":24.60364,"Long":92.318283},{"DISTRIBUTOR_CODE":282355,"DISTRIBUTOR_NAME":"PATSOI INDANE GRAMIN VITRAK","SALES_AREA_NAME":"IMPHAL III LPG SA","STATE_NAME":"Manipur","DISTRICT_NAME":"IMPHAL WEST","BACKLOG":1.08,"Previous Day Delivery":97,"STOCK":302.0,"Pending Deliveries":66,">10Days":0,">20days":0,"Lat":24.796809,"Long":93.867229},{"DISTRIBUTOR_CODE":280067,"DISTRIBUTOR_NAME":"PENIEL INDANE GRAMIN VITRAK","SALES_AREA_NAME":"LPG - AIZAWL","STATE_NAME":"Mizoram","DISTRICT_NAME":"KHAWZAWL","BACKLOG":0.18,"Previous Day Delivery":110,"STOCK":372.0,"Pending Deliveries":10,">10Days":0,">20days":0,"Lat":null,"Long":null},{"DISTRIBUTOR_CODE":291860,"DISTRIBUTOR_NAME":"PHAIBUNG D.R.DUO INDANE GRAMIN VITR","SALES_AREA_NAME":"IMPHAL III LPG SA","STATE_NAME":"Manipur","DISTRICT_NAME":"SENAPATI","BACKLOG":0.17,"Previous Day Delivery":158,"STOCK":195.0,"Pending Deliveries":5,">10Days":0,">20days":5,"Lat":25.266515,"Long":93.894907},{"DISTRIBUTOR_CODE":294516,"DISTRIBUTOR_NAME":"PHAYENG INDANE GRAMIN VITRAK","SALES_AREA_NAME":"IMPHAL III LPG SA","STATE_NAME":"Manipur","DISTRICT_NAME":"IMPHAL WEST","BACKLOG":0.47,"Previous Day Delivery":0,"STOCK":135.0,"Pending Deliveries":16,">10Days":2,">20days":1,"Lat":24.821529,"Long":93.868413},{"DISTRIBUTOR_CODE":313754,"DISTRIBUTOR_NAME":"PHOUBAKCHAO INDANE GRAMIN VITRAK","SALES_AREA_NAME":"IMPHAL III LPG SA","STATE_NAME":"Manipur","DISTRICT_NAME":"IMPHAL WEST","BACKLOG":4.5,"Previous Day Delivery":338,"STOCK":62.0,"Pending Deliveries":1913,">10Days":492,">20days":89,"Lat":24.561733,"Long":93.901051},{"DISTRIBUTOR_CODE":278669,"DISTRIBUTOR_NAME":"PHUNGYAR INDANE GRAMIN VITRAK","SALES_AREA_NAME":"Imphal II LPG SA","STATE_NAME":"Manipur","DISTRICT_NAME":"KAMJONG","BACKLOG":10.17,"Previous Day Delivery":48,"STOCK":335.0,"Pending Deliveries":104,">10Days":2,">20days":12,"Lat":null,"Long":null},{"DISTRIBUTOR_CODE":181388,"DISTRIBUTOR_NAME":"PILAK GAS AGENCY","SALES_AREA_NAME":"Agartala LPG SA-II","STATE_NAME":"Tripura","DISTRICT_NAME":"TRIPURA SOUTH","BACKLOG":1.78,"Previous Day Delivery":523,"STOCK":67.0,"Pending Deliveries":714,">10Days":2,">20days":0,"Lat":23.24876,"Long":91.463115},{"DISTRIBUTOR_CODE":160096,"DISTRIBUTOR_NAME":"POROMPAT INDANE GAS SERVICE","SALES_AREA_NAME":"Imphal II LPG SA","STATE_NAME":"Manipur","DISTRICT_NAME":"IMPHAL EAST","BACKLOG":1.02,"Previous Day Delivery":16,"STOCK":300.0,"Pending Deliveries":51,">10Days":26,">20days":0,"Lat":24.807557,"Long":93.968698},{"DISTRIBUTOR_CODE":305192,"DISTRIBUTOR_NAME":"PRAFULLA INDANE AGENCY","SALES_AREA_NAME":"Silchar LPG SA","STATE_NAME":"Assam","DISTRICT_NAME":"CACHAR","BACKLOG":3.34,"Previous Day Delivery":341,"STOCK":609.0,"Pending Deliveries":561,">10Days":25,">20days":0,"Lat":null,"Long":null},{"DISTRIBUTOR_CODE":265449,"DISTRIBUTOR_NAME":"PUIA INDANE GRAMIN VITRAK","SALES_AREA_NAME":"LPG - AIZAWL","STATE_NAME":"Mizoram","DISTRICT_NAME":"CHAMPHAI","BACKLOG":0.07,"Previous Day Delivery":107,"STOCK":81.0,"Pending Deliveries":4,">10Days":0,">20days":0,"Lat":23.174674,"Long":93.2203},{"DISTRIBUTOR_CODE":339097,"DISTRIBUTOR_NAME":"PURBA LAXMICHERRA INDANE GRAMIN VIT","SALES_AREA_NAME":"Agartala LPG SA","STATE_NAME":"Tripura","DISTRICT_NAME":"KHOWAI","BACKLOG":1.36,"Previous Day Delivery":91,"STOCK":610.0,"Pending Deliveries":87,">10Days":0,">20days":0,"Lat":24.135825,"Long":91.684802},{"DISTRIBUTOR_CODE":160824,"DISTRIBUTOR_NAME":"PUSHPAK GAS AGENCY","SALES_AREA_NAME":"LPG - AIZAWL II","STATE_NAME":"Mizoram","DISTRICT_NAME":"AIZAWL","BACKLOG":1.05,"Previous Day Delivery":24,"STOCK":432.0,"Pending Deliveries":19,">10Days":7,">20days":0,"Lat":23.740357,"Long":92.742376},{"DISTRIBUTOR_CODE":160122,"DISTRIBUTOR_NAME":"R K S GAS AGENCY","SALES_AREA_NAME":"Agartala LPG SA","STATE_NAME":"Tripura","DISTRICT_NAME":"TRIPURA WEST","BACKLOG":1.24,"Previous Day Delivery":326,"STOCK":373.0,"Pending Deliveries":300,">10Days":0,">20days":0,"Lat":23.865183,"Long":91.275633},{"DISTRIBUTOR_CODE":231564,"DISTRIBUTOR_NAME":"R&H INDANE SERVICE","SALES_AREA_NAME":"IMPHAL III LPG SA","STATE_NAME":"Manipur","DISTRICT_NAME":"IMPHAL EAST","BACKLOG":0.47,"Previous Day Delivery":1,"STOCK":15.0,"Pending Deliveries":49,">10Days":18,">20days":16,"Lat":24.757922,"Long":93.979711},{"DISTRIBUTOR_CODE":271953,"DISTRIBUTOR_NAME":"RAISA INDANE SERVICE","SALES_AREA_NAME":"Silchar LPG SA","STATE_NAME":"Assam","DISTRICT_NAME":"CACHAR","BACKLOG":2.88,"Previous Day Delivery":103,"STOCK":25.0,"Pending Deliveries":625,">10Days":0,">20days":0,"Lat":24.81443,"Long":92.818642},{"DISTRIBUTOR_CODE":276057,"DISTRIBUTOR_NAME":"RAKHALTALI INDANE GRAMIN VITRA","SALES_AREA_NAME":"Dharmanagar LSA","STATE_NAME":"Tripura","DISTRICT_NAME":"DHALAI","BACKLOG":1.37,"Previous Day Delivery":162,"STOCK":243.0,"Pending Deliveries":158,">10Days":3,">20days":0,"Lat":24.00154,"Long":91.82972},{"DISTRIBUTOR_CODE":269605,"DISTRIBUTOR_NAME":"RAKOVI INDANE GRAMIN VITRAK","SALES_AREA_NAME":"IMPHAL III LPG SA","STATE_NAME":"Manipur","DISTRICT_NAME":"SENAPATI","BACKLOG":0.7,"Previous Day Delivery":0,"STOCK":145.0,"Pending Deliveries":25,">10Days":0,">20days":0,"Lat":25.464808,"Long":94.270709},{"DISTRIBUTOR_CODE":279327,"DISTRIBUTOR_NAME":"RALSUN INDANE GRAMIN VITRAK","SALES_AREA_NAME":"LPG - AIZAWL","STATE_NAME":"Mizoram","DISTRICT_NAME":"AIZAWL","BACKLOG":1.75,"Previous Day Delivery":50,"STOCK":508.0,"Pending Deliveries":91,">10Days":0,">20days":0,"Lat":24.2275035,"Long":92.9548395},{"DISTRIBUTOR_CODE":260485,"DISTRIBUTOR_NAME":"RAMLIANA INDANE GRAMIN VITRAK","SALES_AREA_NAME":"Silchar II LSA","STATE_NAME":"Mizoram","DISTRICT_NAME":"KOLASIB","BACKLOG":1.92,"Previous Day Delivery":123,"STOCK":250.0,"Pending Deliveries":147,">10Days":9,">20days":0,"Lat":24.039116,"Long":92.67316},{"DISTRIBUTOR_CODE":231570,"DISTRIBUTOR_NAME":"RBD INDANE SERVICE","SALES_AREA_NAME":"IMPHAL III LPG SA","STATE_NAME":"Manipur","DISTRICT_NAME":"IMPHAL EAST","BACKLOG":0.83,"Previous Day Delivery":0,"STOCK":391.0,"Pending Deliveries":365,">10Days":15,">20days":6,"Lat":24.784774,"Long":93.948247},{"DISTRIBUTOR_CODE":160799,"DISTRIBUTOR_NAME":"ROSHNI GAS SERVICE","SALES_AREA_NAME":"Silchar II LSA","STATE_NAME":"Assam","DISTRICT_NAME":"CACHAR","BACKLOG":2.02,"Previous Day Delivery":405,"STOCK":297.0,"Pending Deliveries":623,">10Days":0,">20days":0,"Lat":24.817428,"Long":92.800193},{"DISTRIBUTOR_CODE":262704,"DISTRIBUTOR_NAME":"ROYAL BROTHERS INDANE SERVICE","SALES_AREA_NAME":"Agartala LPG SA","STATE_NAME":"Tripura","DISTRICT_NAME":"TRIPURA WEST","BACKLOG":2.32,"Previous Day Delivery":339,"STOCK":371.0,"Pending Deliveries":700,">10Days":1,">20days":0,"Lat":23.860508,"Long":91.303532},{"DISTRIBUTOR_CODE":184770,"DISTRIBUTOR_NAME":"RUPALI GAS AGENCY","SALES_AREA_NAME":"Silchar LPG SA","STATE_NAME":"Assam","DISTRICT_NAME":"CACHAR","BACKLOG":6.73,"Previous Day Delivery":31,"STOCK":305.0,"Pending Deliveries":896,">10Days":19,">20days":1,"Lat":24.942575,"Long":92.716195},{"DISTRIBUTOR_CODE":261671,"DISTRIBUTOR_NAME":"S.P.CHAKPI INDANE GRAMIN VITRA","SALES_AREA_NAME":"IMPHAL III LPG SA","STATE_NAME":"Manipur","DISTRICT_NAME":"CHANDEL","BACKLOG":0.0,"Previous Day Delivery":0,"STOCK":6.0,"Pending Deliveries":2,">10Days":1,">20days":1,"Lat":24.207132,"Long":93.900773},{"DISTRIBUTOR_CODE":289118,"DISTRIBUTOR_NAME":"SADAGRAM INDANE GRAMIN VITRAK","SALES_AREA_NAME":"Silchar II LSA","STATE_NAME":"Assam","DISTRICT_NAME":"CACHAR","BACKLOG":1.08,"Previous Day Delivery":499,"STOCK":171.0,"Pending Deliveries":224,">10Days":0,">20days":0,"Lat":24.5902663,"Long":92.837577},{"DISTRIBUTOR_CODE":198877,"DISTRIBUTOR_NAME":"SAHAY GAS AGENCY","SALES_AREA_NAME":"Agartala LPG SA","STATE_NAME":"Tripura","DISTRICT_NAME":"TRIPURA WEST","BACKLOG":1.59,"Previous Day Delivery":345,"STOCK":11.0,"Pending Deliveries":502,">10Days":0,">20days":0,"Lat":23.818798,"Long":91.286409},{"DISTRIBUTOR_CODE":267505,"DISTRIBUTOR_NAME":"SAHID MOBIUL INDANE SERVICE","SALES_AREA_NAME":"Silchar LPG SA","STATE_NAME":"Assam","DISTRICT_NAME":"CACHAR","BACKLOG":1.03,"Previous Day Delivery":780,"STOCK":368.0,"Pending Deliveries":431,">10Days":4,">20days":0,"Lat":24.885191,"Long":92.872331},{"DISTRIBUTOR_CODE":314385,"DISTRIBUTOR_NAME":"SAI BABA INDANE GRAMIN VITRAK","SALES_AREA_NAME":"Agartala LPG SA","STATE_NAME":"Tripura","DISTRICT_NAME":"TRIPURA WEST","BACKLOG":2.65,"Previous Day Delivery":36,"STOCK":278.0,"Pending Deliveries":135,">10Days":0,">20days":0,"Lat":23.910079,"Long":91.265482},{"DISTRIBUTOR_CODE":280255,"DISTRIBUTOR_NAME":"SAIA&SONS INDANE GRAMIN VITRAK","SALES_AREA_NAME":"LPG - AIZAWL","STATE_NAME":"Mizoram","DISTRICT_NAME":"CHAMPHAI","BACKLOG":1.55,"Previous Day Delivery":0,"STOCK":401.0,"Pending Deliveries":113,">10Days":2,">20days":0,"Lat":23.697514,"Long":93.380754},{"DISTRIBUTOR_CODE":326417,"DISTRIBUTOR_NAME":"SALGANGAPAR INDANE GRAMIN VITRAK","SALES_AREA_NAME":"Silchar LPG SA","STATE_NAME":"Assam","DISTRICT_NAME":"CACHAR","BACKLOG":0.45,"Previous Day Delivery":35,"STOCK":374.0,"Pending Deliveries":39,">10Days":0,">20days":0,"Lat":24.918334,"Long":92.962588},{"DISTRIBUTOR_CODE":314096,"DISTRIBUTOR_NAME":"SANGBIAKLAL INDANE GRAMIN VITRAK","SALES_AREA_NAME":"Imphal II LPG SA","STATE_NAME":"Manipur","DISTRICT_NAME":"CHURACHANDPUR","BACKLOG":1.05,"Previous Day Delivery":143,"STOCK":201.0,"Pending Deliveries":136,">10Days":19,">20days":5,"Lat":null,"Long":null},{"DISTRIBUTOR_CODE":259298,"DISTRIBUTOR_NAME":"SANGI INDANE GRAMIN VITRAK","SALES_AREA_NAME":"LPG - AIZAWL","STATE_NAME":"Mizoram","DISTRICT_NAME":"AIZAWL","BACKLOG":1.68,"Previous Day Delivery":24,"STOCK":1.0,"Pending Deliveries":135,">10Days":0,">20days":0,"Lat":24.008528,"Long":92.924683},{"DISTRIBUTOR_CODE":314103,"DISTRIBUTOR_NAME":"SANTHEL BAZAR INDANE GRAMIN VITRAK","SALES_AREA_NAME":"IMPHAL III LPG SA","STATE_NAME":"Manipur","DISTRICT_NAME":"KAKCHING","BACKLOG":2.97,"Previous Day Delivery":70,"STOCK":36.0,"Pending Deliveries":220,">10Days":39,">20days":62,"Lat":24.573347,"Long":93.914666},{"DISTRIBUTOR_CODE":161004,"DISTRIBUTOR_NAME":"SANTI GAS SERVICE","SALES_AREA_NAME":"Agartala LPG SA-II","STATE_NAME":"Tripura","DISTRICT_NAME":"TRIPURA SOUTH","BACKLOG":2.15,"Previous Day Delivery":498,"STOCK":216.0,"Pending Deliveries":557,">10Days":0,">20days":0,"Lat":23.308722,"Long":91.564325},{"DISTRIBUTOR_CODE":160800,"DISTRIBUTOR_NAME":"SANTOSH GAS CONCERN","SALES_AREA_NAME":"Silchar LPG SA","STATE_NAME":"Assam","DISTRICT_NAME":"CACHAR","BACKLOG":1.97,"Previous Day Delivery":303,"STOCK":423.0,"Pending Deliveries":552,">10Days":17,">20days":0,"Lat":24.800527,"Long":93.02107},{"DISTRIBUTOR_CODE":160803,"DISTRIBUTOR_NAME":"SARADA GAS  AGENCY","SALES_AREA_NAME":"Dharmanagar LSA","STATE_NAME":"Assam","DISTRICT_NAME":"KARIMGANJ","BACKLOG":1.85,"Previous Day Delivery":625,"STOCK":161.0,"Pending Deliveries":812,">10Days":0,">20days":0,"Lat":24.874444,"Long":92.343435},{"DISTRIBUTOR_CODE":181288,"DISTRIBUTOR_NAME":"SARALA GAS AGENCY","SALES_AREA_NAME":"Agartala LPG SA","STATE_NAME":"Tripura","DISTRICT_NAME":"TRIPURA WEST","BACKLOG":1.46,"Previous Day Delivery":510,"STOCK":59.0,"Pending Deliveries":564,">10Days":0,">20days":0,"Lat":23.824816,"Long":91.304544},{"DISTRIBUTOR_CODE":161006,"DISTRIBUTOR_NAME":"SATYANARAYAN GAS AGENCY","SALES_AREA_NAME":"Agartala LPG SA-II","STATE_NAME":"Tripura","DISTRICT_NAME":"TRIPURA WEST","BACKLOG":1.2,"Previous Day Delivery":889,"STOCK":132.0,"Pending Deliveries":570,">10Days":0,">20days":0,"Lat":23.7871907,"Long":91.2631347},{"DISTRIBUTOR_CODE":271361,"DISTRIBUTOR_NAME":"SAWOMBUNG INDANE SERVICE","SALES_AREA_NAME":"IMPHAL III LPG SA","STATE_NAME":"Manipur","DISTRICT_NAME":"IMPHAL EAST","BACKLOG":2.23,"Previous Day Delivery":83,"STOCK":294.0,"Pending Deliveries":696,">10Days":150,">20days":335,"Lat":24.866387,"Long":94.006012},{"DISTRIBUTOR_CODE":264180,"DISTRIBUTOR_NAME":"SECTOR GOKULNAGAR INDANE AGENC","SALES_AREA_NAME":"Agartala LPG SA","STATE_NAME":"Tripura","DISTRICT_NAME":"SEPAHIJALA","BACKLOG":1.55,"Previous Day Delivery":0,"STOCK":25.0,"Pending Deliveries":30,">10Days":0,">20days":0,"Lat":null,"Long":null},{"DISTRIBUTOR_CODE":164885,"DISTRIBUTOR_NAME":"SEEMA GAS AGENCY,BSF,PANISAGAR","SALES_AREA_NAME":"Dharmanagar LSA","STATE_NAME":"Tripura","DISTRICT_NAME":"TRIPURA NORTH","BACKLOG":0.02,"Previous Day Delivery":66,"STOCK":20.0,"Pending Deliveries":1,">10Days":1,">20days":0,"Lat":24.252273,"Long":92.143117},{"DISTRIBUTOR_CODE":160836,"DISTRIBUTOR_NAME":"SEEMA PRAHARI INDANE GAS AGENCY","SALES_AREA_NAME":"Silchar LPG SA","STATE_NAME":"Assam","DISTRICT_NAME":"CACHAR","BACKLOG":0.32,"Previous Day Delivery":23,"STOCK":114.0,"Pending Deliveries":4,">10Days":1,">20days":0,"Lat":24.852917,"Long":92.757165},{"DISTRIBUTOR_CODE":236310,"DISTRIBUTOR_NAME":"SELING INDANE GAS AGENCY","SALES_AREA_NAME":"LPG - AIZAWL","STATE_NAME":"Mizoram","DISTRICT_NAME":"AIZAWL","BACKLOG":1.59,"Previous Day Delivery":141,"STOCK":97.0,"Pending Deliveries":434,">10Days":0,">20days":0,"Lat":23.733302,"Long":92.845169},{"DISTRIBUTOR_CODE":162569,"DISTRIBUTOR_NAME":"SENAPATI INDANE SERVICE","SALES_AREA_NAME":"IMPHAL III LPG SA","STATE_NAME":"Manipur","DISTRICT_NAME":"SENAPATI","BACKLOG":0.32,"Previous Day Delivery":0,"STOCK":6.0,"Pending Deliveries":19,">10Days":0,">20days":0,"Lat":25.319385,"Long":94.152087},{"DISTRIBUTOR_CODE":160833,"DISTRIBUTOR_NAME":"SEVEN RAYS GAS AGENCY","SALES_AREA_NAME":"LPG - AIZAWL II","STATE_NAME":"Mizoram","DISTRICT_NAME":"AIZAWL","BACKLOG":0.0,"Previous Day Delivery":2,"STOCK":118.0,"Pending Deliveries":0,">10Days":0,">20days":0,"Lat":23.721956,"Long":92.713879},{"DISTRIBUTOR_CODE":160794,"DISTRIBUTOR_NAME":"SHAHID NANDACHAND GAS AGENCY","SALES_AREA_NAME":"Silchar II LSA","STATE_NAME":"Assam","DISTRICT_NAME":"CACHAR","BACKLOG":1.77,"Previous Day Delivery":482,"STOCK":394.0,"Pending Deliveries":717,">10Days":0,">20days":0,"Lat":24.844277,"Long":92.778332},{"DISTRIBUTOR_CODE":254178,"DISTRIBUTOR_NAME":"SHIBANI INDANE AGENCY","SALES_AREA_NAME":"Dharmanagar LSA","STATE_NAME":"Tripura","DISTRICT_NAME":"TRIPURA NORTH","BACKLOG":1.24,"Previous Day Delivery":49,"STOCK":131.0,"Pending Deliveries":291,">10Days":0,">20days":0,"Lat":24.038873,"Long":92.197693},{"DISTRIBUTOR_CODE":160885,"DISTRIBUTOR_NAME":"SIALNGENTHANG & SONS","SALES_AREA_NAME":"Imphal II LPG SA","STATE_NAME":"Manipur","DISTRICT_NAME":"CHURACHANDPUR","BACKLOG":2.47,"Previous Day Delivery":0,"STOCK":119.0,"Pending Deliveries":663,">10Days":0,">20days":1,"Lat":24.337105,"Long":93.697259},{"DISTRIBUTOR_CODE":314555,"DISTRIBUTOR_NAME":"SIBULI INDANE GRAMIN VITRAK","SALES_AREA_NAME":"Dharmanagar LSA","STATE_NAME":"Tripura","DISTRICT_NAME":"UNAKOTI","BACKLOG":4.12,"Previous Day Delivery":0,"STOCK":341.0,"Pending Deliveries":507,">10Days":38,">20days":0,"Lat":24.139629,"Long":92.12227},{"DISTRIBUTOR_CODE":259218,"DISTRIBUTOR_NAME":"SILCHAR INDANE SERVICE","SALES_AREA_NAME":"Silchar II LSA","STATE_NAME":"Assam","DISTRICT_NAME":"CACHAR","BACKLOG":1.59,"Previous Day Delivery":464,"STOCK":537.0,"Pending Deliveries":583,">10Days":1,">20days":0,"Lat":24.83132,"Long":92.795574},{"DISTRIBUTOR_CODE":271741,"DISTRIBUTOR_NAME":"SK INDANE GRAMIN VITRAK","SALES_AREA_NAME":"LPG - AIZAWL II","STATE_NAME":"Mizoram","DISTRICT_NAME":"SERCHHIP","BACKLOG":0.0,"Previous Day Delivery":0,"STOCK":34.0,"Pending Deliveries":0,">10Days":0,">20days":0,"Lat":23.470543,"Long":92.856924},{"DISTRIBUTOR_CODE":289533,"DISTRIBUTOR_NAME":"SONGTAL INDANE GRAMIN VITRAK","SALES_AREA_NAME":"Imphal II LPG SA","STATE_NAME":"Manipur","DISTRICT_NAME":"CHURACHANDPUR","BACKLOG":0.02,"Previous Day Delivery":283,"STOCK":373.0,"Pending Deliveries":4,">10Days":0,">20days":1,"Lat":24.163796,"Long":93.367406},{"DISTRIBUTOR_CODE":160815,"DISTRIBUTOR_NAME":"SOUTHERN GAS SERVICE","SALES_AREA_NAME":"LPG - AIZAWL II","STATE_NAME":"Mizoram","DISTRICT_NAME":"LUNGLEI","BACKLOG":4.31,"Previous Day Delivery":134,"STOCK":33.0,"Pending Deliveries":1483,">10Days":63,">20days":0,"Lat":22.85719,"Long":92.823845},{"DISTRIBUTOR_CODE":160188,"DISTRIBUTOR_NAME":"SREE GURU INDANE SERVICE","SALES_AREA_NAME":"Silchar II LSA","STATE_NAME":"Assam","DISTRICT_NAME":"HAILAKANDI","BACKLOG":2.88,"Previous Day Delivery":310,"STOCK":62.0,"Pending Deliveries":660,">10Days":0,">20days":0,"Lat":24.558009,"Long":92.606891},{"DISTRIBUTOR_CODE":275202,"DISTRIBUTOR_NAME":"SREE RAM INDANE GRAMIN VITRAK","SALES_AREA_NAME":"Agartala LPG SA-II","STATE_NAME":"Tripura","DISTRICT_NAME":"TRIPURA SOUTH","BACKLOG":1.49,"Previous Day Delivery":133,"STOCK":9.0,"Pending Deliveries":262,">10Days":0,">20days":0,"Lat":23.0748094,"Long":91.6451538},{"DISTRIBUTOR_CODE":161001,"DISTRIBUTOR_NAME":"SREEMA GAS AGENCY","SALES_AREA_NAME":"Dharmanagar LSA","STATE_NAME":"Tripura","DISTRICT_NAME":"UNAKOTI","BACKLOG":1.8,"Previous Day Delivery":341,"STOCK":80.0,"Pending Deliveries":536,">10Days":0,">20days":0,"Lat":24.320953,"Long":91.997662},{"DISTRIBUTOR_CODE":278771,"DISTRIBUTOR_NAME":"SRIKONA INDANE GRAMIN VITRAK","SALES_AREA_NAME":"Silchar LPG SA","STATE_NAME":"Assam","DISTRICT_NAME":"CACHAR","BACKLOG":2.53,"Previous Day Delivery":203,"STOCK":536.0,"Pending Deliveries":524,">10Days":0,">20days":0,"Lat":24.840074,"Long":92.714987},{"DISTRIBUTOR_CODE":161003,"DISTRIBUTOR_NAME":"STATE CO-OP MKTG  FED TRIPURA","SALES_AREA_NAME":"Agartala LPG SA","STATE_NAME":"Tripura","DISTRICT_NAME":"TRIPURA WEST","BACKLOG":2.37,"Previous Day Delivery":352,"STOCK":459.0,"Pending Deliveries":622,">10Days":45,">20days":0,"Lat":23.840981,"Long":91.285347},{"DISTRIBUTOR_CODE":260907,"DISTRIBUTOR_NAME":"STC GAS AGENCY","SALES_AREA_NAME":"Imphal II LPG SA","STATE_NAME":"Manipur","DISTRICT_NAME":"CHURACHANDPUR","BACKLOG":0.3,"Previous Day Delivery":15,"STOCK":133.0,"Pending Deliveries":9,">10Days":3,">20days":4,"Lat":24.366972,"Long":93.670371},{"DISTRIBUTOR_CODE":160206,"DISTRIBUTOR_NAME":"SUAKCHUNGA","SALES_AREA_NAME":"LPG - AIZAWL II","STATE_NAME":"Mizoram","DISTRICT_NAME":"AIZAWL","BACKLOG":2.17,"Previous Day Delivery":622,"STOCK":145.0,"Pending Deliveries":738,">10Days":99,">20days":0,"Lat":23.736322,"Long":92.716944},{"DISTRIBUTOR_CODE":314468,"DISTRIBUTOR_NAME":"SUBHANKITA INDANE GRAMIN VITRAK","SALES_AREA_NAME":"Agartala LPG SA-II","STATE_NAME":"Tripura","DISTRICT_NAME":"TRIPURA SOUTH","BACKLOG":2.9,"Previous Day Delivery":28,"STOCK":204.0,"Pending Deliveries":144,">10Days":1,">20days":0,"Lat":22.986034,"Long":91.561153},{"DISTRIBUTOR_CODE":160801,"DISTRIBUTOR_NAME":"SUNBEAM GAS AGENCY","SALES_AREA_NAME":"Silchar II LSA","STATE_NAME":"Assam","DISTRICT_NAME":"CACHAR","BACKLOG":1.26,"Previous Day Delivery":593,"STOCK":297.0,"Pending Deliveries":531,">10Days":1,">20days":0,"Lat":24.7881219,"Long":92.8101154},{"DISTRIBUTOR_CODE":275223,"DISTRIBUTOR_NAME":"SUNRISE INDANE GRAMIN VITRAK","SALES_AREA_NAME":"Imphal II LPG SA","STATE_NAME":"Manipur","DISTRICT_NAME":"PHERZAWL","BACKLOG":0.88,"Previous Day Delivery":0,"STOCK":120.0,"Pending Deliveries":6,">10Days":1,">20days":2,"Lat":24.2341294,"Long":93.0212402},{"DISTRIBUTOR_CODE":276254,"DISTRIBUTOR_NAME":"SURADHANI INDANE GRAMIN VITRAK","SALES_AREA_NAME":"Dharmanagar LSA","STATE_NAME":"Tripura","DISTRICT_NAME":"DHALAI","BACKLOG":1.73,"Previous Day Delivery":183,"STOCK":118.0,"Pending Deliveries":237,">10Days":1,">20days":0,"Lat":24.009052,"Long":91.836558},{"DISTRIBUTOR_CODE":273201,"DISTRIBUTOR_NAME":"SURJYA INDANE GRAMIN VITRAK","SALES_AREA_NAME":"Agartala LPG SA-II","STATE_NAME":"Tripura","DISTRICT_NAME":"TRIPURA SOUTH","BACKLOG":0.72,"Previous Day Delivery":8,"STOCK":131.0,"Pending Deliveries":64,">10Days":0,">20days":0,"Lat":23.232629,"Long":91.392135},{"DISTRIBUTOR_CODE":197448,"DISTRIBUTOR_NAME":"T.D.K. GAS AGENCY","SALES_AREA_NAME":"Imphal II LPG SA","STATE_NAME":"Manipur","DISTRICT_NAME":"IMPHAL WEST","BACKLOG":0.67,"Previous Day Delivery":168,"STOCK":16.0,"Pending Deliveries":48,">10Days":18,">20days":0,"Lat":24.937778,"Long":93.883073},{"DISTRIBUTOR_CODE":181524,"DISTRIBUTOR_NAME":"TARWAA GAS","SALES_AREA_NAME":"Agartala LPG SA-II","STATE_NAME":"Tripura","DISTRICT_NAME":"TRIPURA WEST","BACKLOG":0.73,"Previous Day Delivery":2,"STOCK":3458.0,"Pending Deliveries":3,">10Days":1,">20days":0,"Lat":null,"Long":null},{"DISTRIBUTOR_CODE":317710,"DISTRIBUTOR_NAME":"TEBARIA INDANE GRAMIN VITRAK","SALES_AREA_NAME":"Agartala LPG SA-II","STATE_NAME":"Tripura","DISTRICT_NAME":"TRIPURA SOUTH","BACKLOG":1.27,"Previous Day Delivery":0,"STOCK":77.0,"Pending Deliveries":20,">10Days":0,">20days":0,"Lat":23.087076,"Long":91.37314},{"DISTRIBUTOR_CODE":295320,"DISTRIBUTOR_NAME":"TEINEM INDANE GRAMIN VITRAK","SALES_AREA_NAME":"Imphal II LPG SA","STATE_NAME":"Manipur","DISTRICT_NAME":"UKHRUL","BACKLOG":0.63,"Previous Day Delivery":0,"STOCK":555.0,"Pending Deliveries":16,">10Days":2,">20days":13,"Lat":25.119775,"Long":94.251824},{"DISTRIBUTOR_CODE":285318,"DISTRIBUTOR_NAME":"TENGNOUPAL INDANE GRAMIN VITRA","SALES_AREA_NAME":"IMPHAL III LPG SA","STATE_NAME":"Manipur","DISTRICT_NAME":"TENGNOUPAL","BACKLOG":1.39,"Previous Day Delivery":0,"STOCK":764.0,"Pending Deliveries":17,">10Days":1,">20days":16,"Lat":null,"Long":null},{"DISTRIBUTOR_CODE":276924,"DISTRIBUTOR_NAME":"TH. HESHO INDANE GRAMIN VITRAK","SALES_AREA_NAME":"IMPHAL III LPG SA","STATE_NAME":"Manipur","DISTRICT_NAME":"SENAPATI","BACKLOG":0.12,"Previous Day Delivery":62,"STOCK":924.0,"Pending Deliveries":4,">10Days":2,">20days":1,"Lat":25.376506,"Long":94.228539},{"DISTRIBUTOR_CODE":287049,"DISTRIBUTOR_NAME":"THANGAL INDANE GRAMIN VITRAK","SALES_AREA_NAME":"IMPHAL III LPG SA","STATE_NAME":"Manipur","DISTRICT_NAME":"NONEY","BACKLOG":0.06,"Previous Day Delivery":0,"STOCK":412.0,"Pending Deliveries":3,">10Days":0,">20days":1,"Lat":null,"Long":null},{"DISTRIBUTOR_CODE":160894,"DISTRIBUTOR_NAME":"THOMSON INDANE AGENCY","SALES_AREA_NAME":"IMPHAL III LPG SA","STATE_NAME":"Manipur","DISTRICT_NAME":"TAMENGLONG","BACKLOG":0.02,"Previous Day Delivery":160,"STOCK":710.0,"Pending Deliveries":2,">10Days":0,">20days":0,"Lat":24.633302,"Long":94.009115},{"DISTRIBUTOR_CODE":350964,"DISTRIBUTOR_NAME":"TILAGAON INDANE GRAMIN VITRAK","SALES_AREA_NAME":"Dharmanagar LSA","STATE_NAME":"Tripura","DISTRICT_NAME":"UNAKOTI","BACKLOG":2.0,"Previous Day Delivery":176,"STOCK":512.0,"Pending Deliveries":135,">10Days":55,">20days":0,"Lat":24.351223,"Long":91.99883},{"DISTRIBUTOR_CODE":291846,"DISTRIBUTOR_NAME":"TOLLOI INDANE GRAMIN VITRAK","SALES_AREA_NAME":"Imphal II LPG SA","STATE_NAME":"Manipur","DISTRICT_NAME":"UKHRUL","BACKLOG":0.71,"Previous Day Delivery":0,"STOCK":982.0,"Pending Deliveries":21,">10Days":0,">20days":11,"Lat":25.208078,"Long":94.333359},{"DISTRIBUTOR_CODE":283753,"DISTRIBUTOR_NAME":"TOUSEM INDANE GRAMIN VITRAK","SALES_AREA_NAME":"IMPHAL III LPG SA","STATE_NAME":"Manipur","DISTRICT_NAME":"TAMENGLONG","BACKLOG":0.51,"Previous Day Delivery":0,"STOCK":211.0,"Pending Deliveries":13,">10Days":0,">20days":0,"Lat":25.099924,"Long":93.362064},{"DISTRIBUTOR_CODE":272595,"DISTRIBUTOR_NAME":"TOWERING TWENTYSEVEN INDANE AG","SALES_AREA_NAME":"Imphal II LPG SA","STATE_NAME":"Manipur","DISTRICT_NAME":"CHURACHANDPUR","BACKLOG":0.0,"Previous Day Delivery":0,"STOCK":430.0,"Pending Deliveries":0,">10Days":0,">20days":0,"Lat":24.34865,"Long":93.672663},{"DISTRIBUTOR_CODE":252682,"DISTRIBUTOR_NAME":"TRINAYANEE INDANE GAS AGENCY","SALES_AREA_NAME":"Agartala LPG SA-II","STATE_NAME":"Tripura","DISTRICT_NAME":"GOMATI","BACKLOG":1.17,"Previous Day Delivery":328,"STOCK":84.0,"Pending Deliveries":414,">10Days":0,">20days":1,"Lat":23.540233,"Long":91.499218},{"DISTRIBUTOR_CODE":160117,"DISTRIBUTOR_NAME":"TRIPURA STAT CONS COOP FED LTD","SALES_AREA_NAME":"Agartala LPG SA-II","STATE_NAME":"Tripura","DISTRICT_NAME":"TRIPURA WEST","BACKLOG":0.84,"Previous Day Delivery":443,"STOCK":266.0,"Pending Deliveries":252,">10Days":15,">20days":0,"Lat":23.82847,"Long":91.270126},{"DISTRIBUTOR_CODE":181383,"DISTRIBUTOR_NAME":"TRIPURESWARI GAS AGENCY","SALES_AREA_NAME":"Dharmanagar LSA","STATE_NAME":"Tripura","DISTRICT_NAME":"TRIPURA NORTH","BACKLOG":1.48,"Previous Day Delivery":686,"STOCK":296.0,"Pending Deliveries":843,">10Days":0,">20days":0,"Lat":24.378545,"Long":92.166004},{"DISTRIBUTOR_CODE":259103,"DISTRIBUTOR_NAME":"UNITED GAS AGENCY","SALES_AREA_NAME":"Agartala LPG SA","STATE_NAME":"Tripura","DISTRICT_NAME":"KHOWAI","BACKLOG":2.07,"Previous Day Delivery":594,"STOCK":706.0,"Pending Deliveries":683,">10Days":1,">20days":0,"Lat":23.842941,"Long":91.634682},{"DISTRIBUTOR_CODE":160816,"DISTRIBUTOR_NAME":"V. NEIHKUNGA GAS AGENCY","SALES_AREA_NAME":"LPG - AIZAWL II","STATE_NAME":"Mizoram","DISTRICT_NAME":"AIZAWL","BACKLOG":0.11,"Previous Day Delivery":369,"STOCK":271.0,"Pending Deliveries":28,">10Days":7,">20days":2,"Lat":23.754061,"Long":92.731959},{"DISTRIBUTOR_CODE":271739,"DISTRIBUTOR_NAME":"V.L.INDANE GRAMIN VITRAK","SALES_AREA_NAME":"LPG - AIZAWL","STATE_NAME":"Mizoram","DISTRICT_NAME":"KHAWZAWL","BACKLOG":0.28,"Previous Day Delivery":1,"STOCK":317.0,"Pending Deliveries":21,">10Days":0,">20days":0,"Lat":23.611601,"Long":93.081972},{"DISTRIBUTOR_CODE":160813,"DISTRIBUTOR_NAME":"VANBUANGI GAS AGENCY","SALES_AREA_NAME":"LPG - AIZAWL","STATE_NAME":"Mizoram","DISTRICT_NAME":"AIZAWL","BACKLOG":2.9,"Previous Day Delivery":0,"STOCK":13.0,"Pending Deliveries":808,">10Days":1,">20days":0,"Lat":23.713317,"Long":92.71814},{"DISTRIBUTOR_CODE":287169,"DISTRIBUTOR_NAME":"VANGSEI INDANE GRAMIN VITRAK K.SALB","SALES_AREA_NAME":"Imphal II LPG SA","STATE_NAME":"Manipur","DISTRICT_NAME":"CHURACHANDPUR","BACKLOG":0.93,"Previous Day Delivery":0,"STOCK":170.0,"Pending Deliveries":311,">10Days":4,">20days":3,"Lat":24.3767564,"Long":93.7069824},{"DISTRIBUTOR_CODE":275374,"DISTRIBUTOR_NAME":"VLH INDANE GRAMIN VITRAK","SALES_AREA_NAME":"LPG - AIZAWL","STATE_NAME":"Mizoram","DISTRICT_NAME":"MAMIT","BACKLOG":3.71,"Previous Day Delivery":0,"STOCK":457.0,"Pending Deliveries":287,">10Days":0,">20days":0,"Lat":24.002563,"Long":92.375181},{"DISTRIBUTOR_CODE":290116,"DISTRIBUTOR_NAME":"WILLONG INDANE GRAMIN VITRAK","SALES_AREA_NAME":"IMPHAL III LPG SA","STATE_NAME":"Manipur","DISTRICT_NAME":"SENAPATI","BACKLOG":0.02,"Previous Day Delivery":1,"STOCK":16.0,"Pending Deliveries":1,">10Days":0,">20days":0,"Lat":25.476075,"Long":93.975881},{"DISTRIBUTOR_CODE":160895,"DISTRIBUTOR_NAME":"YAIRIPOK GAS SERVICE","SALES_AREA_NAME":"IMPHAL III LPG SA","STATE_NAME":"Manipur","DISTRICT_NAME":"THOUBAL","BACKLOG":4.54,"Previous Day Delivery":326,"STOCK":340.0,"Pending Deliveries":865,">10Days":169,">20days":370,"Lat":24.671532,"Long":94.042633},{"DISTRIBUTOR_CODE":273676,"DISTRIBUTOR_NAME":"JWALAMUKHI GAS AGENCY","SALES_AREA_NAME":"IMPHAL III LPG SA","STATE_NAME":"Manipur","DISTRICT_NAME":"SENAPATI","BACKLOG":0.0,"Previous Day Delivery":0,"STOCK":29.0,"Pending Deliveries":0,">10Days":0,">20days":0,"Lat":25.28943,"Long":94.047924},{"DISTRIBUTOR_CODE":349889,"DISTRIBUTOR_NAME":"Jampui Indane Gramin Vitrak","SALES_AREA_NAME":"Dharmanagar LSA","STATE_NAME":"Tripura","DISTRICT_NAME":"TRIPURA NORTH","BACKLOG":3.44,"Previous Day Delivery":0,"STOCK":176.0,"Pending Deliveries":21,">10Days":1,">20days":0,"Lat":null,"Long":null},{"DISTRIBUTOR_CODE":160077,"DISTRIBUTOR_NAME":"K & K INDANE SERVICE","SALES_AREA_NAME":"Imphal II LPG SA","STATE_NAME":"Manipur","DISTRICT_NAME":"IMPHAL WEST","BACKLOG":0.11,"Previous Day Delivery":342,"STOCK":337.0,"Pending Deliveries":33,">10Days":4,">20days":12,"Lat":24.797024,"Long":93.877893},{"DISTRIBUTOR_CODE":280257,"DISTRIBUTOR_NAME":"K.L.INDANE GRAMIN VITRAK","SALES_AREA_NAME":"LPG - AIZAWL","STATE_NAME":"Mizoram","DISTRICT_NAME":"MAMIT","BACKLOG":8.31,"Previous Day Delivery":0,"STOCK":347.0,"Pending Deliveries":242,">10Days":1,">20days":0,"Lat":23.677985,"Long":92.603636},{"DISTRIBUTOR_CODE":291870,"DISTRIBUTOR_NAME":"KACHAI INDANE GRAMIN VITRAK","SALES_AREA_NAME":"Imphal II LPG SA","STATE_NAME":"Manipur","DISTRICT_NAME":"UKHRUL","BACKLOG":0.56,"Previous Day Delivery":0,"STOCK":291.0,"Pending Deliveries":13,">10Days":0,">20days":12,"Lat":25.240979,"Long":94.274859},{"DISTRIBUTOR_CODE":318480,"DISTRIBUTOR_NAME":"KACHAKANTI INDANE GRAMIN VITRAK","SALES_AREA_NAME":"Silchar LPG SA","STATE_NAME":"Assam","DISTRICT_NAME":"CACHAR","BACKLOG":1.37,"Previous Day Delivery":350,"STOCK":232.0,"Pending Deliveries":256,">10Days":1,">20days":1,"Lat":24.970385,"Long":92.566739},{"DISTRIBUTOR_CODE":252605,"DISTRIBUTOR_NAME":"KAKALI GAS AGENCY","SALES_AREA_NAME":"Agartala LPG SA-II","STATE_NAME":"Tripura","DISTRICT_NAME":"TRIPURA WEST","BACKLOG":2.06,"Previous Day Delivery":340,"STOCK":356.0,"Pending Deliveries":962,">10Days":1,">20days":0,"Lat":23.82976,"Long":91.37539},{"DISTRIBUTOR_CODE":307878,"DISTRIBUTOR_NAME":"KAKCHING GARRISION GAS AGENCY","SALES_AREA_NAME":"IMPHAL III LPG SA","STATE_NAME":"Manipur","DISTRICT_NAME":"KAKCHING","BACKLOG":0.49,"Previous Day Delivery":0,"STOCK":410.0,"Pending Deliveries":23,">10Days":3,">20days":18,"Lat":null,"Long":null},{"DISTRIBUTOR_CODE":160081,"DISTRIBUTOR_NAME":"KALAIN INDANE SERVICE","SALES_AREA_NAME":"Silchar LPG SA","STATE_NAME":"Assam","DISTRICT_NAME":"CACHAR","BACKLOG":5.72,"Previous Day Delivery":125,"STOCK":95.0,"Pending Deliveries":1002,">10Days":0,">20days":0,"Lat":24.965124,"Long":92.575844},{"DISTRIBUTOR_CODE":257308,"DISTRIBUTOR_NAME":"KALIGANJ INDANE GAS AGENCY","SALES_AREA_NAME":"Silchar LPG SA","STATE_NAME":"Assam","DISTRICT_NAME":"KARIMGANJ","BACKLOG":2.38,"Previous Day Delivery":334,"STOCK":258.0,"Pending Deliveries":750,">10Days":20,">20days":0,"Lat":24.788654,"Long":92.415069},{"DISTRIBUTOR_CODE":285322,"DISTRIBUTOR_NAME":"KALYANPUR INDANE GRAMIN VITRAK","SALES_AREA_NAME":"Agartala LPG SA","STATE_NAME":"Tripura","DISTRICT_NAME":"KHOWAI","BACKLOG":2.22,"Previous Day Delivery":1,"STOCK":50.0,"Pending Deliveries":430,">10Days":5,">20days":0,"Lat":23.932232,"Long":91.611298},{"DISTRIBUTOR_CODE":285330,"DISTRIBUTOR_NAME":"KAMALGHAT INDANE GRAMIN VITRAK","SALES_AREA_NAME":"Agartala LPG SA","STATE_NAME":"Tripura","DISTRICT_NAME":"TRIPURA WEST","BACKLOG":0.0,"Previous Day Delivery":0,"STOCK":225.0,"Pending Deliveries":1,">10Days":0,">20days":0,"Lat":23.9247403,"Long":91.3402371},{"DISTRIBUTOR_CODE":173346,"DISTRIBUTOR_NAME":"KANAK INDANE AGENCY","SALES_AREA_NAME":"Dharmanagar LSA","STATE_NAME":"Tripura","DISTRICT_NAME":"UNAKOTI","BACKLOG":2.02,"Previous Day Delivery":319,"STOCK":41.0,"Pending Deliveries":970,">10Days":0,">20days":0,"Lat":24.161467,"Long":92.041488},{"DISTRIBUTOR_CODE":274365,"DISTRIBUTOR_NAME":"KAPLIANA INDANE AGENCY","SALES_AREA_NAME":"LPG - AIZAWL II","STATE_NAME":"Mizoram","DISTRICT_NAME":"AIZAWL","BACKLOG":0.5,"Previous Day Delivery":72,"STOCK":116.0,"Pending Deliveries":99,">10Days":0,">20days":0,"Lat":23.707036,"Long":92.718235},{"DISTRIBUTOR_CODE":319330,"DISTRIBUTOR_NAME":"KARIMGANJ INDANE SERVICE","SALES_AREA_NAME":"Dharmanagar LSA","STATE_NAME":"Assam","DISTRICT_NAME":"KARIMGANJ","BACKLOG":0.7,"Previous Day Delivery":456,"STOCK":488.0,"Pending Deliveries":231,">10Days":1,">20days":0,"Lat":24.864512,"Long":92.33842},{"DISTRIBUTOR_CODE":265221,"DISTRIBUTOR_NAME":"KASOMKHULLEN INDANE GRAMIN VIT","SALES_AREA_NAME":"Imphal II LPG SA","STATE_NAME":"Manipur","DISTRICT_NAME":"KAMJONG","BACKLOG":1.83,"Previous Day Delivery":0,"STOCK":99.0,"Pending Deliveries":113,">10Days":12,">20days":74,"Lat":null,"Long":null},{"DISTRIBUTOR_CODE":334779,"DISTRIBUTOR_NAME":"KATHALIA INDANE GRAMIN VITRAK","SALES_AREA_NAME":"Agartala LPG SA","STATE_NAME":"Tripura","DISTRICT_NAME":"SEPAHIJALA","BACKLOG":0.36,"Previous Day Delivery":205,"STOCK":89.0,"Pending Deliveries":44,">10Days":0,">20days":0,"Lat":23.364788,"Long":91.339513},{"DISTRIBUTOR_CODE":326420,"DISTRIBUTOR_NAME":"KHASIAMANGAL PRAHARI GAS AGENCY","SALES_AREA_NAME":"Agartala LPG SA","STATE_NAME":"Tripura","DISTRICT_NAME":"KHOWAI","BACKLOG":0.48,"Previous Day Delivery":0,"STOCK":326.0,"Pending Deliveries":7,">10Days":1,">20days":1,"Lat":null,"Long":null},{"DISTRIBUTOR_CODE":335791,"DISTRIBUTOR_NAME":"KHENGJOI INDANE GRAMIN VITRAK","SALES_AREA_NAME":"IMPHAL III LPG SA","STATE_NAME":"Manipur","DISTRICT_NAME":"CHANDEL","BACKLOG":0.0,"Previous Day Delivery":0,"STOCK":230.0,"Pending Deliveries":3,">10Days":0,">20days":2,"Lat":null,"Long":null},{"DISTRIBUTOR_CODE":160886,"DISTRIBUTOR_NAME":"KHONGNANG GAS AGENCY","SALES_AREA_NAME":"Imphal II LPG SA","STATE_NAME":"Manipur","DISTRICT_NAME":"BISHNUPUR","BACKLOG":3.77,"Previous Day Delivery":231,"STOCK":106.0,"Pending Deliveries":845,">10Days":302,">20days":38,"Lat":24.573461,"Long":93.764148},{"DISTRIBUTOR_CODE":259184,"DISTRIBUTOR_NAME":"KHONGSAI RGGLV INDANE","SALES_AREA_NAME":"IMPHAL III LPG SA","STATE_NAME":"Manipur","DISTRICT_NAME":"KANGPOKPI","BACKLOG":0.03,"Previous Day Delivery":8,"STOCK":82.0,"Pending Deliveries":1,">10Days":0,">20days":1,"Lat":null,"Long":null},{"DISTRIBUTOR_CODE":160971,"DISTRIBUTOR_NAME":"KHORIPHABA LPG SERVICE","SALES_AREA_NAME":"Imphal II LPG SA","STATE_NAME":"Manipur","DISTRICT_NAME":"BISHNUPUR","BACKLOG":0.81,"Previous Day Delivery":27,"STOCK":1026.0,"Pending Deliveries":63,">10Days":3,">20days":25,"Lat":24.721115,"Long":93.841681},{"DISTRIBUTOR_CODE":160822,"DISTRIBUTOR_NAME":"KHUMA GAS AGENCY","SALES_AREA_NAME":"LPG - AIZAWL II","STATE_NAME":"Mizoram","DISTRICT_NAME":"LAWNGTLAI","BACKLOG":1.83,"Previous Day Delivery":146,"STOCK":381.0,"Pending Deliveries":285,">10Days":0,">20days":0,"Lat":22.5246641,"Long":92.8959725},{"DISTRIBUTOR_CODE":278668,"DISTRIBUTOR_NAME":"KHUMBONG INDANE GRAMIN VITRAK","SALES_AREA_NAME":"Imphal II LPG SA","STATE_NAME":"Manipur","DISTRICT_NAME":"IMPHAL WEST","BACKLOG":3.1,"Previous Day Delivery":158,"STOCK":354.0,"Pending Deliveries":444,">10Days":105,">20days":243,"Lat":24.777912,"Long":93.825347},{"DISTRIBUTOR_CODE":281535,"DISTRIBUTOR_NAME":"KHURKHUL HEIKHAM INDANE GRAMIN","SALES_AREA_NAME":"Imphal II LPG SA","STATE_NAME":"Manipur","DISTRICT_NAME":"IMPHAL WEST","BACKLOG":3.92,"Previous Day Delivery":106,"STOCK":235.0,"Pending Deliveries":235,">10Days":46,">20days":154,"Lat":24.912841,"Long":93.8608369},{"DISTRIBUTOR_CODE":293048,"DISTRIBUTOR_NAME":"KHUSHIMATA INDANE SERVICE","SALES_AREA_NAME":"Agartala LPG SA-II","STATE_NAME":"Tripura","DISTRICT_NAME":"TRIPURA SOUTH","BACKLOG":1.29,"Previous Day Delivery":13,"STOCK":201.0,"Pending Deliveries":159,">10Days":0,">20days":0,"Lat":23.007328,"Long":91.728393},{"DISTRIBUTOR_CODE":160079,"DISTRIBUTOR_NAME":"KIM-JOE GAS SERVICE","SALES_AREA_NAME":"Imphal II LPG SA","STATE_NAME":"Manipur","DISTRICT_NAME":"CHURACHANDPUR","BACKLOG":2.15,"Previous Day Delivery":0,"STOCK":10.0,"Pending Deliveries":485,">10Days":0,">20days":0,"Lat":24.341676,"Long":93.702702},{"DISTRIBUTOR_CODE":283909,"DISTRIBUTOR_NAME":"KRISHNA INDANE GRAMIN VITRAK","SALES_AREA_NAME":"Silchar LPG SA","STATE_NAME":"Assam","DISTRICT_NAME":"CACHAR","BACKLOG":2.93,"Previous Day Delivery":377,"STOCK":197.0,"Pending Deliveries":365,">10Days":4,">20days":0,"Lat":24.9442559,"Long":92.6288153},{"DISTRIBUTOR_CODE":354111,"DISTRIBUTOR_NAME":"Kumbi Shanti Indane Gramin Vitrak","SALES_AREA_NAME":"Imphal II LPG SA","STATE_NAME":"Manipur","DISTRICT_NAME":"BISHNUPUR","BACKLOG":0.46,"Previous Day Delivery":15,"STOCK":173.0,"Pending Deliveries":13,">10Days":9,">20days":0,"Lat":null,"Long":null},{"DISTRIBUTOR_CODE":288563,"DISTRIBUTOR_NAME":"LAICHING KANGSHANG INDANE GRAMIN VI","SALES_AREA_NAME":"IMPHAL III LPG SA","STATE_NAME":"Manipur","DISTRICT_NAME":"TENGNOUPAL","BACKLOG":9.97,"Previous Day Delivery":0,"STOCK":37.0,"Pending Deliveries":313,">10Days":3,">20days":18,"Lat":null,"Long":null},{"DISTRIBUTOR_CODE":277039,"DISTRIBUTOR_NAME":"LALNEIHMAWII INDANE GRAMIN VIT","SALES_AREA_NAME":"LPG - AIZAWL","STATE_NAME":"Mizoram","DISTRICT_NAME":"AIZAWL","BACKLOG":0.09,"Previous Day Delivery":0,"STOCK":31.0,"Pending Deliveries":5,">10Days":0,">20days":0,"Lat":23.555453,"Long":92.705648},{"DISTRIBUTOR_CODE":327356,"DISTRIBUTOR_NAME":"LALPANI FV INDANE GRAMIN VITRAK","SALES_AREA_NAME":"Silchar II LSA","STATE_NAME":"Assam","DISTRICT_NAME":"HAILAKANDI","BACKLOG":0.43,"Previous Day Delivery":240,"STOCK":101.0,"Pending Deliveries":62,">10Days":0,">20days":0,"Lat":24.517812,"Long":92.721385},{"DISTRIBUTOR_CODE":255150,"DISTRIBUTOR_NAME":"LAMBODARA INDANE SERVICE","SALES_AREA_NAME":"Imphal II LPG SA","STATE_NAME":"Manipur","DISTRICT_NAME":"IMPHAL EAST","BACKLOG":1.48,"Previous Day Delivery":141,"STOCK":72.0,"Pending Deliveries":151,">10Days":55,">20days":53,"Lat":24.851211,"Long":93.935017},{"DISTRIBUTOR_CODE":226698,"DISTRIBUTOR_NAME":"LAMSHANG GAS AGENCY","SALES_AREA_NAME":"IMPHAL III LPG SA","STATE_NAME":"Manipur","DISTRICT_NAME":"IMPHAL WEST","BACKLOG":0.33,"Previous Day Delivery":37,"STOCK":459.0,"Pending Deliveries":22,">10Days":2,">20days":0,"Lat":24.821456,"Long":93.86831},{"DISTRIBUTOR_CODE":290062,"DISTRIBUTOR_NAME":"LATU INDANE GRAMIN VITRAK","SALES_AREA_NAME":"Dharmanagar LSA","STATE_NAME":"Assam","DISTRICT_NAME":"KARIMGANJ","BACKLOG":1.67,"Previous Day Delivery":426,"STOCK":208.0,"Pending Deliveries":325,">10Days":0,">20days":0,"Lat":24.838052,"Long":92.269154},{"DISTRIBUTOR_CODE":160891,"DISTRIBUTOR_NAME":"LEIBAKLEI GAS SERVICE","SALES_AREA_NAME":"IMPHAL III LPG SA","STATE_NAME":"Manipur","DISTRICT_NAME":"KAKCHING","BACKLOG":0.24,"Previous Day Delivery":336,"STOCK":270.0,"Pending Deliveries":43,">10Days":1,">20days":0,"Lat":null,"Long":null},{"DISTRIBUTOR_CODE":263122,"DISTRIBUTOR_NAME":"LIANKUNGA INDANE GRAMIN VITRAK","SALES_AREA_NAME":"LPG - AIZAWL","STATE_NAME":"Mizoram","DISTRICT_NAME":"MAMIT","BACKLOG":1.64,"Previous Day Delivery":6,"STOCK":498.0,"Pending Deliveries":144,">10Days":0,">20days":0,"Lat":23.70931,"Long":92.483389},{"DISTRIBUTOR_CODE":314219,"DISTRIBUTOR_NAME":"LIANMINLUN INDANE GRAMIN VITRAK","SALES_AREA_NAME":"Imphal II LPG SA","STATE_NAME":"Manipur","DISTRICT_NAME":"CHURACHANDPUR","BACKLOG":1.32,"Previous Day Delivery":0,"STOCK":193.0,"Pending Deliveries":109,">10Days":19,">20days":2,"Lat":null,"Long":null},{"DISTRIBUTOR_CODE":208935,"DISTRIBUTOR_NAME":"LOKNATH GAS AGENCY","SALES_AREA_NAME":"Dharmanagar LSA","STATE_NAME":"Tripura","DISTRICT_NAME":"TRIPURA NORTH","BACKLOG":2.43,"Previous Day Delivery":208,"STOCK":12.0,"Pending Deliveries":289,">10Days":0,">20days":0,"Lat":24.26537,"Long":92.153149},{"DISTRIBUTOR_CODE":314163,"DISTRIBUTOR_NAME":"LOKTAK INDANE GRAMIN VITRAK","SALES_AREA_NAME":"Imphal II LPG SA","STATE_NAME":"Manipur","DISTRICT_NAME":"BISHNUPUR","BACKLOG":1.22,"Previous Day Delivery":141,"STOCK":26.0,"Pending Deliveries":46,">10Days":1,">20days":43,"Lat":24.528778,"Long":93.819146},{"DISTRIBUTOR_CODE":289017,"DISTRIBUTOR_NAME":"LOWAIRPOA INDANE GRAMIN VITRAK","SALES_AREA_NAME":"Dharmanagar LSA","STATE_NAME":"Assam","DISTRICT_NAME":"KARIMGANJ","BACKLOG":2.36,"Previous Day Delivery":289,"STOCK":481.0,"Pending Deliveries":590,">10Days":1,">20days":0,"Lat":24.4745067,"Long":92.3181109},{"DISTRIBUTOR_CODE":265222,"DISTRIBUTOR_NAME":"LTM INDANE GRAMIN VITRAK","SALES_AREA_NAME":"LPG - AIZAWL II","STATE_NAME":"Mizoram","DISTRICT_NAME":"SAIHA","BACKLOG":0.09,"Previous Day Delivery":0,"STOCK":30.0,"Pending Deliveries":7,">10Days":0,">20days":0,"Lat":22.314935,"Long":93.023964},{"DISTRIBUTOR_CODE":320295,"DISTRIBUTOR_NAME":"LUNGPHU INDANE GRAMIN VITRAK","SALES_AREA_NAME":"Imphal II LPG SA","STATE_NAME":"Manipur","DISTRICT_NAME":"IMPHAL EAST","BACKLOG":1.4,"Previous Day Delivery":0,"STOCK":4.0,"Pending Deliveries":135,">10Days":18,">20days":102,"Lat":null,"Long":null},{"DISTRIBUTOR_CODE":266018,"DISTRIBUTOR_NAME":"LUPHENG INDANE GRAMIN VITR","SALES_AREA_NAME":"Imphal II LPG SA","STATE_NAME":"Manipur","DISTRICT_NAME":"CHURACHANDPUR","BACKLOG":1.19,"Previous Day Delivery":0,"STOCK":1643.0,"Pending Deliveries":29,">10Days":23,">20days":4,"Lat":24.137824,"Long":93.596477},{"DISTRIBUTOR_CODE":160831,"DISTRIBUTOR_NAME":"LUSHAI GAS AGENCY","SALES_AREA_NAME":"Silchar II LSA","STATE_NAME":"Mizoram","DISTRICT_NAME":"KOLASIB","BACKLOG":0.46,"Previous Day Delivery":0,"STOCK":301.0,"Pending Deliveries":3,">10Days":0,">20days":0,"Lat":24.47959,"Long":92.75493},{"DISTRIBUTOR_CODE":232629,"DISTRIBUTOR_NAME":"M & B INDANE GAS AGENCY","SALES_AREA_NAME":"LPG - AIZAWL II","STATE_NAME":"Mizoram","DISTRICT_NAME":"AIZAWL","BACKLOG":1.52,"Previous Day Delivery":336,"STOCK":248.0,"Pending Deliveries":219,">10Days":0,">20days":0,"Lat":23.7210261,"Long":92.7139782},{"DISTRIBUTOR_CODE":160084,"DISTRIBUTOR_NAME":"M M GAS SERVICE","SALES_AREA_NAME":"Imphal II LPG SA","STATE_NAME":"Manipur","DISTRICT_NAME":"IMPHAL WEST","BACKLOG":1.63,"Previous Day Delivery":316,"STOCK":373.0,"Pending Deliveries":433,">10Days":49,">20days":233,"Lat":24.813668,"Long":93.926888},{"DISTRIBUTOR_CODE":160121,"DISTRIBUTOR_NAME":"MAA KALI INDANE AGENCY(BISHALGARH)","SALES_AREA_NAME":"Agartala LPG SA","STATE_NAME":"Tripura","DISTRICT_NAME":"SEPAHIJALA","BACKLOG":1.97,"Previous Day Delivery":887,"STOCK":309.0,"Pending Deliveries":1012,">10Days":15,">20days":0,"Lat":23.663965,"Long":91.288731},{"DISTRIBUTOR_CODE":292072,"DISTRIBUTOR_NAME":"MAA KALI INDANE GRAMIN VITRAK","SALES_AREA_NAME":"Silchar LPG SA","STATE_NAME":"Assam","DISTRICT_NAME":"CACHAR","BACKLOG":3.18,"Previous Day Delivery":178,"STOCK":4.0,"Pending Deliveries":272,">10Days":37,">20days":0,"Lat":24.744007,"Long":92.667594},{"DISTRIBUTOR_CODE":343911,"DISTRIBUTOR_NAME":"MAA MONOSA INDANE SERVICE","SALES_AREA_NAME":"Agartala LPG SA","STATE_NAME":"Tripura","DISTRICT_NAME":"TRIPURA WEST","BACKLOG":0.79,"Previous Day Delivery":304,"STOCK":71.0,"Pending Deliveries":97,">10Days":0,">20days":0,"Lat":null,"Long":null},{"DISTRIBUTOR_CODE":259299,"DISTRIBUTOR_NAME":"MABIAKI INDANE GRAMIN VITRAK","SALES_AREA_NAME":"LPG - AIZAWL","STATE_NAME":"Mizoram","DISTRICT_NAME":"SAITUAL","BACKLOG":0.53,"Previous Day Delivery":236,"STOCK":165.0,"Pending Deliveries":37,">10Days":0,">20days":0,"Lat":23.667113,"Long":92.962186},{"DISTRIBUTOR_CODE":181594,"DISTRIBUTOR_NAME":"MAHALAKSMI INDANE GAS","SALES_AREA_NAME":"IMPHAL III LPG SA","STATE_NAME":"Manipur","DISTRICT_NAME":"IMPHAL EAST","BACKLOG":1.51,"Previous Day Delivery":0,"STOCK":332.0,"Pending Deliveries":150,">10Days":17,">20days":111,"Lat":24.7216969,"Long":93.9400791},{"DISTRIBUTOR_CODE":161009,"DISTRIBUTOR_NAME":"MAHARAJA GAS AGENCY","SALES_AREA_NAME":"Agartala LPG SA","STATE_NAME":"Tripura","DISTRICT_NAME":"TRIPURA WEST","BACKLOG":1.75,"Previous Day Delivery":385,"STOCK":293.0,"Pending Deliveries":414,">10Days":6,">20days":0,"Lat":23.882244,"Long":91.248201},{"DISTRIBUTOR_CODE":279413,"DISTRIBUTOR_NAME":"MAHARANI INDANE GRAMIN VITRAK","SALES_AREA_NAME":"Agartala LPG SA-II","STATE_NAME":"Tripura","DISTRICT_NAME":"GOMATI","BACKLOG":0.18,"Previous Day Delivery":330,"STOCK":27.0,"Pending Deliveries":31,">10Days":0,">20days":0,"Lat":23.513299,"Long":91.562834},{"DISTRIBUTOR_CODE":160892,"DISTRIBUTOR_NAME":"MAIBIA GAS DISTRIBUTOR","SALES_AREA_NAME":"Imphal II LPG SA","STATE_NAME":"Manipur","DISTRICT_NAME":"BISHNUPUR","BACKLOG":1.03,"Previous Day Delivery":0,"STOCK":303.0,"Pending Deliveries":298,">10Days":74,">20days":178,"Lat":24.496971,"Long":93.779667},{"DISTRIBUTOR_CODE":173345,"DISTRIBUTOR_NAME":"MAMAWIA INDANE AGENCY","SALES_AREA_NAME":"LPG - AIZAWL","STATE_NAME":"Mizoram","DISTRICT_NAME":"KHAWZAWL","BACKLOG":1.31,"Previous Day Delivery":178,"STOCK":218.0,"Pending Deliveries":136,">10Days":0,">20days":0,"Lat":23.501833,"Long":93.1966},{"DISTRIBUTOR_CODE":160083,"DISTRIBUTOR_NAME":"MANIPUR GAS SERVICE","SALES_AREA_NAME":"Imphal II LPG SA","STATE_NAME":"Manipur","DISTRICT_NAME":"IMPHAL EAST","BACKLOG":0.36,"Previous Day Delivery":280,"STOCK":25.0,"Pending Deliveries":110,">10Days":0,">20days":9,"Lat":24.834909,"Long":93.946602},{"DISTRIBUTOR_CODE":160918,"DISTRIBUTOR_NAME":"MANIPUR POLICE GAS SERVICE","SALES_AREA_NAME":"IMPHAL III LPG SA","STATE_NAME":"Manipur","DISTRICT_NAME":"IMPHAL WEST","BACKLOG":0.89,"Previous Day Delivery":9,"STOCK":229.0,"Pending Deliveries":51,">10Days":18,">20days":18,"Lat":24.817372,"Long":93.948077},{"DISTRIBUTOR_CODE":160888,"DISTRIBUTOR_NAME":"MANIPUR THOUBAL GAS AGENCY","SALES_AREA_NAME":"IMPHAL III LPG SA","STATE_NAME":"Manipur","DISTRICT_NAME":"THOUBAL","BACKLOG":4.75,"Previous Day Delivery":268,"STOCK":198.0,"Pending Deliveries":592,">10Days":103,">20days":210,"Lat":24.638924,"Long":93.998005},{"DISTRIBUTOR_CODE":264143,"DISTRIBUTOR_NAME":"MANMOHINI INDANE GRAMIN VITRAK","SALES_AREA_NAME":"Agartala LPG SA","STATE_NAME":"Tripura","DISTRICT_NAME":"KHOWAI","BACKLOG":1.52,"Previous Day Delivery":544,"STOCK":347.0,"Pending Deliveries":640,">10Days":0,">20days":0,"Lat":24.013181,"Long":91.62165},{"DISTRIBUTOR_CODE":231568,"DISTRIBUTOR_NAME":"MANTRIPUKHRI IGAR(S) INDANE AGENCY","SALES_AREA_NAME":"IMPHAL III LPG SA","STATE_NAME":"Manipur","DISTRICT_NAME":"IMPHAL EAST","BACKLOG":4.22,"Previous Day Delivery":6,"STOCK":834.0,"Pending Deliveries":87,">10Days":78,">20days":1,"Lat":24.8501251,"Long":93.9236781},{"DISTRIBUTOR_CODE":282930,"DISTRIBUTOR_NAME":"MILON INDANE AGENCY","SALES_AREA_NAME":"Agartala LPG SA","STATE_NAME":"Tripura","DISTRICT_NAME":"SEPAHIJALA","BACKLOG":0.96,"Previous Day Delivery":320,"STOCK":56.0,"Pending Deliveries":322,">10Days":11,">20days":0,"Lat":23.607334,"Long":91.353293},{"DISTRIBUTOR_CODE":161334,"DISTRIBUTOR_NAME":"MISAO GAS SERVICE","SALES_AREA_NAME":"Imphal II LPG SA","STATE_NAME":"Manipur","DISTRICT_NAME":"IMPHAL EAST","BACKLOG":0.0,"Previous Day Delivery":0,"STOCK":569.0,"Pending Deliveries":15,">10Days":1,">20days":12,"Lat":24.8264116,"Long":93.9461908},{"DISTRIBUTOR_CODE":181385,"DISTRIBUTOR_NAME":"MITRICA GAS AGENCY","SALES_AREA_NAME":"Agartala LPG SA-II","STATE_NAME":"Tripura","DISTRICT_NAME":"TRIPURA WEST","BACKLOG":0.0,"Previous Day Delivery":0,"STOCK":1092.0,"Pending Deliveries":0,">10Days":0,">20days":0,"Lat":23.877506,"Long":91.287126},{"DISTRIBUTOR_CODE":160826,"DISTRIBUTOR_NAME":"MIZOFED GAS AGENCY (CHAMPHAI)","SALES_AREA_NAME":"LPG - AIZAWL","STATE_NAME":"Mizoram","DISTRICT_NAME":"CHAMPHAI","BACKLOG":0.21,"Previous Day Delivery":29,"STOCK":386.0,"Pending Deliveries":45,">10Days":0,">20days":0,"Lat":23.457296,"Long":93.32682},{"DISTRIBUTOR_CODE":160827,"DISTRIBUTOR_NAME":"MIZOFED GAS AGENCY (KOLASIB)","SALES_AREA_NAME":"Silchar II LSA","STATE_NAME":"Mizoram","DISTRICT_NAME":"KOLASIB","BACKLOG":0.64,"Previous Day Delivery":260,"STOCK":362.0,"Pending Deliveries":97,">10Days":0,">20days":0,"Lat":24.20175,"Long":92.687101},{"DISTRIBUTOR_CODE":160835,"DISTRIBUTOR_NAME":"MIZOFED GAS AGENCY (MAMIT)","SALES_AREA_NAME":"LPG - AIZAWL","STATE_NAME":"Mizoram","DISTRICT_NAME":"MAMIT","BACKLOG":1.05,"Previous Day Delivery":35,"STOCK":57.0,"Pending Deliveries":108,">10Days":0,">20days":0,"Lat":23.9202,"Long":92.491851},{"DISTRIBUTOR_CODE":160829,"DISTRIBUTOR_NAME":"MIZOFED GAS AGENCY (SAIHA)","SALES_AREA_NAME":"LPG - AIZAWL II","STATE_NAME":"Mizoram","DISTRICT_NAME":"SAIHA","BACKLOG":1.67,"Previous Day Delivery":261,"STOCK":660.0,"Pending Deliveries":411,">10Days":25,">20days":0,"Lat":22.492351,"Long":92.980828},{"DISTRIBUTOR_CODE":160828,"DISTRIBUTOR_NAME":"MIZOFED GAS AGENCY (SERCHIP)","SALES_AREA_NAME":"LPG - AIZAWL II","STATE_NAME":"Mizoram","DISTRICT_NAME":"SERCHHIP","BACKLOG":1.81,"Previous Day Delivery":250,"STOCK":334.0,"Pending Deliveries":294,">10Days":0,">20days":0,"Lat":23.331379,"Long":92.85539},{"DISTRIBUTOR_CODE":160186,"DISTRIBUTOR_NAME":"MIZOFED LTD.(AIZAWL)","SALES_AREA_NAME":"LPG - AIZAWL","STATE_NAME":"Mizoram","DISTRICT_NAME":"AIZAWL","BACKLOG":2.02,"Previous Day Delivery":331,"STOCK":441.0,"Pending Deliveries":726,">10Days":0,">20days":0,"Lat":23.749021,"Long":92.71864},{"DISTRIBUTOR_CODE":160834,"DISTRIBUTOR_NAME":"MIZORAM POLICE GAS AGENCY","SALES_AREA_NAME":"LPG - AIZAWL","STATE_NAME":"Mizoram","DISTRICT_NAME":"AIZAWL","BACKLOG":3.35,"Previous Day Delivery":3,"STOCK":57.0,"Pending Deliveries":119,">10Days":0,">20days":0,"Lat":23.734479,"Long":92.729016},{"DISTRIBUTOR_CODE":279387,"DISTRIBUTOR_NAME":"MORPANKHI INDANE AGENCY","SALES_AREA_NAME":"Agartala LPG SA","STATE_NAME":"Tripura","DISTRICT_NAME":"TRIPURA WEST","BACKLOG":6.9,"Previous Day Delivery":0,"STOCK":391.0,"Pending Deliveries":26,">10Days":2,">20days":0,"Lat":null,"Long":null},{"DISTRIBUTOR_CODE":280001,"DISTRIBUTOR_NAME":"MUANI INDANE GRAMIN VITRAK","SALES_AREA_NAME":"LPG - AIZAWL II","STATE_NAME":"Mizoram","DISTRICT_NAME":"LUNGLEI","BACKLOG":0.29,"Previous Day Delivery":1,"STOCK":372.0,"Pending Deliveries":7,">10Days":0,">20days":0,"Lat":22.873926,"Long":92.588931},{"DISTRIBUTOR_CODE":160797,"DISTRIBUTOR_NAME":"NAHAR GAS AGENCY","SALES_AREA_NAME":"Silchar II LSA","STATE_NAME":"Assam","DISTRICT_NAME":"HAILAKANDI","BACKLOG":2.83,"Previous Day Delivery":304,"STOCK":12.0,"Pending Deliveries":1071,">10Days":0,">20days":0,"Lat":24.688399,"Long":92.565227},{"DISTRIBUTOR_CODE":160924,"DISTRIBUTOR_NAME":"NAMBUL GAS AGENCY","SALES_AREA_NAME":"IMPHAL III LPG SA","STATE_NAME":"Manipur","DISTRICT_NAME":"IMPHAL WEST","BACKLOG":0.0,"Previous Day Delivery":210,"STOCK":313.0,"Pending Deliveries":0,">10Days":0,">20days":0,"Lat":24.798074,"Long":93.895207},{"DISTRIBUTOR_CODE":161007,"DISTRIBUTOR_NAME":"NANI GOPAL GAS AGENCY","SALES_AREA_NAME":"Agartala LPG SA-II","STATE_NAME":"Tripura","DISTRICT_NAME":"GOMATI","BACKLOG":0.56,"Previous Day Delivery":574,"STOCK":101.0,"Pending Deliveries":116,">10Days":2,">20days":0,"Lat":23.516095,"Long":91.65323},{"DISTRIBUTOR_CODE":259297,"DISTRIBUTOR_NAME":"Z & D RGGLV INDANE GAS AGENCY","SALES_AREA_NAME":"LPG - AIZAWL","STATE_NAME":"Mizoram","DISTRICT_NAME":"SAITUAL","BACKLOG":0.59,"Previous Day Delivery":0,"STOCK":77.0,"Pending Deliveries":46,">10Days":0,">20days":0,"Lat":23.883781,"Long":93.211106},{"DISTRIBUTOR_CODE":314113,"DISTRIBUTOR_NAME":"ZIMIK INDANE GRAMIN VITRAK","SALES_AREA_NAME":"Imphal II LPG SA","STATE_NAME":"Manipur","DISTRICT_NAME":"KAMJONG","BACKLOG":0.0,"Previous Day Delivery":0,"STOCK":29.0,"Pending Deliveries":0,">10Days":0,">20days":0,"Lat":null,"Long":null},{"DISTRIBUTOR_CODE":160887,"DISTRIBUTOR_NAME":"ZINGSHO GAS SERVICE","SALES_AREA_NAME":"Imphal II LPG SA","STATE_NAME":"Manipur","DISTRICT_NAME":"UKHRUL","BACKLOG":3.26,"Previous Day Delivery":375,"STOCK":129.0,"Pending Deliveries":318,">10Days":142,">20days":69,"Lat":25.108756,"Long":94.359944},{"DISTRIBUTOR_CODE":272609,"DISTRIBUTOR_NAME":"ZOLAND INDANE GRAMIN VITRAK","SALES_AREA_NAME":"LPG - AIZAWL II","STATE_NAME":"Mizoram","DISTRICT_NAME":"LUNGLEI","BACKLOG":0.14,"Previous Day Delivery":58,"STOCK":88.0,"Pending Deliveries":7,">10Days":0,">20days":0,"Lat":23.051658,"Long":92.772374},{"DISTRIBUTOR_CODE":160819,"DISTRIBUTOR_NAME":"ZOMAWI GAS AGENCY","SALES_AREA_NAME":"LPG - AIZAWL II","STATE_NAME":"Mizoram","DISTRICT_NAME":"LUNGLEI","BACKLOG":3.56,"Previous Day Delivery":333,"STOCK":31.0,"Pending Deliveries":445,">10Days":0,">20days":0,"Lat":22.911226,"Long":92.469932},{"DISTRIBUTOR_CODE":160817,"DISTRIBUTOR_NAME":"ZOPUII GAS AGENCY","SALES_AREA_NAME":"LPG - AIZAWL","STATE_NAME":"Mizoram","DISTRICT_NAME":"AIZAWL","BACKLOG":2.01,"Previous Day Delivery":386,"STOCK":23.0,"Pending Deliveries":515,">10Days":6,">20days":0,"Lat":23.739922,"Long":92.708552},{"DISTRIBUTOR_CODE":160189,"DISTRIBUTOR_NAME":"ZORAM INDANE SERVICE","SALES_AREA_NAME":"LPG - AIZAWL","STATE_NAME":"Mizoram","DISTRICT_NAME":"AIZAWL","BACKLOG":0.13,"Previous Day Delivery":3,"STOCK":89.0,"Pending Deliveries":16,">10Days":0,">20days":0,"Lat":23.751185,"Long":92.725015},{"DISTRIBUTOR_CODE":234167,"DISTRIBUTOR_NAME":"ZOTHAN INDANE AGENCY","SALES_AREA_NAME":"LPG - AIZAWL II","STATE_NAME":"Mizoram","DISTRICT_NAME":"AIZAWL","BACKLOG":5.33,"Previous Day Delivery":519,"STOCK":89.0,"Pending Deliveries":1187,">10Days":0,">20days":0,"Lat":23.7413414,"Long":92.7025998}]